{
"type": "FeatureCollection",
"name": "arches_us",
"features": [
{ "type": "Feature", "properties": { "feature_name": "Agate Bridge", "feature_class": "Arch", "state_alpha": "AZ", "state_numeric": "04", "county_name": "Apache", "county_numeric": "001", "prim_lat_dec": 34.8922502, "prim_long_dec": -109.7937252, "elev_in_ft": "5584", "map_name": "Adamana", "date_created": "02\/08\/1980", "date_edited": "" }, "geometry": { "type": "Point", "coordinates": [ -109.793725, 34.89225 ] } },
{ "type": "Feature", "properties": { "feature_name": "Angels Window", "feature_class": "Arch", "state_alpha": "AZ", "state_numeric": "04", "county_name": "Coconino", "county_numeric": "005", "prim_lat_dec": 36.12, "prim_long_dec": -111.9469444, "elev_in_ft": "7723", "map_name": "Cape Royal", "date_created": "02\/08\/1980", "date_edited": "02\/23\/2010" }, "geometry": { "type": "Point", "coordinates": [ -111.946944, 36.12 ] } },
{ "type": "Feature", "properties": { "feature_name": "Big Hogan", "feature_class": "Arch", "state_alpha": "AZ", "state_numeric": "04", "county_name": "Navajo", "county_numeric": "017", "prim_lat_dec": 36.9141667, "prim_long_dec": -110.0755556, "elev_in_ft": "5426", "map_name": "Mitten Buttes", "date_created": "02\/08\/1980", "date_edited": "09\/17\/2009" }, "geometry": { "type": "Point", "coordinates": [ -110.075556, 36.914167 ] } },
{ "type": "Feature", "properties": { "feature_name": "Eggshell Arch", "feature_class": "Arch", "state_alpha": "AZ", "state_numeric": "04", "county_name": "Coconino", "county_numeric": "005", "prim_lat_dec": 36.681665, "prim_long_dec": -110.790974, "elev_in_ft": "6122", "map_name": "Toenleshushe Canyon", "date_created": "02\/08\/1980", "date_edited": "" }, "geometry": { "type": "Point", "coordinates": [ -110.790974, 36.681665 ] } },
{ "type": "Feature", "properties": { "feature_name": "Hole in the Rock", "feature_class": "Arch", "state_alpha": "AZ", "state_numeric": "04", "county_name": "Coconino", "county_numeric": "005", "prim_lat_dec": 36.9383187, "prim_long_dec": -111.8493384, "elev_in_ft": "5994", "map_name": "Wrather Arch", "date_created": "02\/08\/1980", "date_edited": "" }, "geometry": { "type": "Point", "coordinates": [ -111.849338, 36.938319 ] } },
{ "type": "Feature", "properties": { "feature_name": "Keyhole Natural Bridge", "feature_class": "Arch", "state_alpha": "AZ", "state_numeric": "04", "county_name": "Coconino", "county_numeric": "005", "prim_lat_dec": 36.3799826, "prim_long_dec": -112.5810209, "elev_in_ft": "3642", "map_name": "Fishtail Mesa", "date_created": "02\/08\/1980", "date_edited": "" }, "geometry": { "type": "Point", "coordinates": [ -112.581021, 36.379983 ] } },
{ "type": "Feature", "properties": { "feature_name": "Nachi Kulik", "feature_class": "Arch", "state_alpha": "AZ", "state_numeric": "04", "county_name": "Pima", "county_numeric": "019", "prim_lat_dec": 31.6005556, "prim_long_dec": -111.7077778, "elev_in_ft": "2966", "map_name": "Caponera Peak", "date_created": "02\/08\/1980", "date_edited": "06\/15\/2010" }, "geometry": { "type": "Point", "coordinates": [ -111.707778, 31.600556 ] } },
{ "type": "Feature", "properties": { "feature_name": "Miners Arch", "feature_class": "Arch", "state_alpha": "AZ", "state_numeric": "04", "county_name": "La Paz", "county_numeric": "012", "prim_lat_dec": 34.1641667, "prim_long_dec": -113.8555556, "elev_in_ft": "1486", "map_name": "Swansea", "date_created": "02\/08\/1980", "date_edited": "05\/25\/2010" }, "geometry": { "type": "Point", "coordinates": [ -113.855556, 34.164167 ] } },
{ "type": "Feature", "properties": { "feature_name": "Natural Arch", "feature_class": "Arch", "state_alpha": "AZ", "state_numeric": "04", "county_name": "Navajo", "county_numeric": "017", "prim_lat_dec": 36.7627778, "prim_long_dec": -110.1408333, "elev_in_ft": "5574", "map_name": "Agathla Peak", "date_created": "02\/08\/1980", "date_edited": "01\/22\/2010" }, "geometry": { "type": "Point", "coordinates": [ -110.140833, 36.762778 ] } },
{ "type": "Feature", "properties": { "feature_name": "Pine Tree Arch", "feature_class": "Arch", "state_alpha": "AZ", "state_numeric": "04", "county_name": "Navajo", "county_numeric": "017", "prim_lat_dec": 36.9027778, "prim_long_dec": -110.1691667, "elev_in_ft": "5689", "map_name": "Mystery Valley", "date_created": "06\/27\/1984", "date_edited": "09\/24\/2009" }, "geometry": { "type": "Point", "coordinates": [ -110.169167, 36.902778 ] } },
{ "type": "Feature", "properties": { "feature_name": "Forbidden Arch", "feature_class": "Arch", "state_alpha": "AZ", "state_numeric": "04", "county_name": "Apache", "county_numeric": "001", "prim_lat_dec": 36.958453, "prim_long_dec": -109.881709, "elev_in_ft": "5026", "map_name": "Rooster Rock", "date_created": "02\/08\/1980", "date_edited": "01\/22\/2010" }, "geometry": { "type": "Point", "coordinates": [ -109.881709, 36.958453 ] } },
{ "type": "Feature", "properties": { "feature_name": "Needles Eye", "feature_class": "Arch", "state_alpha": "AZ", "state_numeric": "04", "county_name": "La Paz", "county_numeric": "012", "prim_lat_dec": 33.2803115, "prim_long_dec": -114.5627312, "elev_in_ft": "2477", "map_name": "Cibola SE", "date_created": "02\/08\/1980", "date_edited": "05\/25\/2010" }, "geometry": { "type": "Point", "coordinates": [ -114.562731, 33.280312 ] } },
{ "type": "Feature", "properties": { "feature_name": "Onyx Bridge", "feature_class": "Arch", "state_alpha": "AZ", "state_numeric": "04", "county_name": "Apache", "county_numeric": "001", "prim_lat_dec": 35.1086111, "prim_long_dec": -109.7922222, "elev_in_ft": "5538", "map_name": "Kachina Point", "date_created": "02\/08\/1980", "date_edited": "10\/02\/2009" }, "geometry": { "type": "Point", "coordinates": [ -109.792222, 35.108611 ] } },
{ "type": "Feature", "properties": { "feature_name": "Owl Head", "feature_class": "Arch", "state_alpha": "AZ", "state_numeric": "04", "county_name": "La Paz", "county_numeric": "012", "prim_lat_dec": 33.4422554, "prim_long_dec": -113.9160458, "elev_in_ft": "2461", "map_name": "Owl Head", "date_created": "02\/08\/1980", "date_edited": "05\/25\/2010" }, "geometry": { "type": "Point", "coordinates": [ -113.916046, 33.442255 ] } },
{ "type": "Feature", "properties": { "feature_name": "Rock Window", "feature_class": "Arch", "state_alpha": "AZ", "state_numeric": "04", "county_name": "Apache", "county_numeric": "001", "prim_lat_dec": 36.6222231, "prim_long_dec": -109.5609414, "elev_in_ft": "5564", "map_name": "Little Round Rock", "date_created": "02\/08\/1980", "date_edited": "" }, "geometry": { "type": "Point", "coordinates": [ -109.560941, 36.622223 ] } },
{ "type": "Feature", "properties": { "feature_name": "Royal Arch", "feature_class": "Arch", "state_alpha": "AZ", "state_numeric": "04", "county_name": "La Paz", "county_numeric": "012", "prim_lat_dec": 33.3986111, "prim_long_dec": -113.6633333, "elev_in_ft": "1676", "map_name": "Coyote Peak", "date_created": "02\/08\/1980", "date_edited": "05\/25\/2010" }, "geometry": { "type": "Point", "coordinates": [ -113.663333, 33.398611 ] } },
{ "type": "Feature", "properties": { "feature_name": "Slit Rock", "feature_class": "Arch", "state_alpha": "AZ", "state_numeric": "04", "county_name": "Pima", "county_numeric": "019", "prim_lat_dec": 31.8222955, "prim_long_dec": -112.6118137, "elev_in_ft": "2260", "map_name": "Menagers Lake", "date_created": "02\/08\/1980", "date_edited": "" }, "geometry": { "type": "Point", "coordinates": [ -112.611814, 31.822295 ] } },
{ "type": "Feature", "properties": { "feature_name": "Suns Eye", "feature_class": "Arch", "state_alpha": "AZ", "state_numeric": "04", "county_name": "Navajo", "county_numeric": "017", "prim_lat_dec": 36.9155556, "prim_long_dec": -110.0816667, "elev_in_ft": "5476", "map_name": "Mitten Buttes", "date_created": "02\/08\/1980", "date_edited": "09\/17\/2009" }, "geometry": { "type": "Point", "coordinates": [ -110.081667, 36.915556 ] } },
{ "type": "Feature", "properties": { "feature_name": "The Eagles Eye", "feature_class": "Arch", "state_alpha": "AZ", "state_numeric": "04", "county_name": "La Paz", "county_numeric": "012", "prim_lat_dec": 33.5944754, "prim_long_dec": -113.9038255, "elev_in_ft": "2421", "map_name": "New Water Mountains", "date_created": "02\/08\/1980", "date_edited": "05\/25\/2010" }, "geometry": { "type": "Point", "coordinates": [ -113.903825, 33.594475 ] } },
{ "type": "Feature", "properties": { "feature_name": "The Window", "feature_class": "Arch", "state_alpha": "AZ", "state_numeric": "04", "county_name": "Apache", "county_numeric": "001", "prim_lat_dec": 36.1083333, "prim_long_dec": -109.3961111, "elev_in_ft": "6240", "map_name": "Three Turkey Canyon", "date_created": "02\/08\/1980", "date_edited": "10\/02\/2009" }, "geometry": { "type": "Point", "coordinates": [ -109.396111, 36.108333 ] } },
{ "type": "Feature", "properties": { "feature_name": "White Mesa Arch", "feature_class": "Arch", "state_alpha": "AZ", "state_numeric": "04", "county_name": "Coconino", "county_numeric": "005", "prim_lat_dec": 36.4738848, "prim_long_dec": -110.9751455, "elev_in_ft": "6624", "map_name": "White Mesa Arch", "date_created": "02\/08\/1980", "date_edited": "" }, "geometry": { "type": "Point", "coordinates": [ -110.975145, 36.473885 ] } },
{ "type": "Feature", "properties": { "feature_name": "Window Rock", "feature_class": "Arch", "state_alpha": "AZ", "state_numeric": "04", "county_name": "Apache", "county_numeric": "001", "prim_lat_dec": 35.6827952, "prim_long_dec": -109.0489817, "elev_in_ft": "7054", "map_name": "Window Rock", "date_created": "02\/08\/1980", "date_edited": "" }, "geometry": { "type": "Point", "coordinates": [ -109.048982, 35.682795 ] } },
{ "type": "Feature", "properties": { "feature_name": "Window Rock", "feature_class": "Arch", "state_alpha": "AZ", "state_numeric": "04", "county_name": "Apache", "county_numeric": "001", "prim_lat_dec": 36.2791683, "prim_long_dec": -109.6895551, "elev_in_ft": "5735", "map_name": "Many Farms SW", "date_created": "02\/08\/1980", "date_edited": "" }, "geometry": { "type": "Point", "coordinates": [ -109.689555, 36.279168 ] } },
{ "type": "Feature", "properties": { "feature_name": "Window Rock", "feature_class": "Arch", "state_alpha": "AZ", "state_numeric": "04", "county_name": "Apache", "county_numeric": "001", "prim_lat_dec": 36.4966675, "prim_long_dec": -109.5581631, "elev_in_ft": "5827", "map_name": "Many Farms NE", "date_created": "02\/08\/1980", "date_edited": "11\/08\/2011" }, "geometry": { "type": "Point", "coordinates": [ -109.558163, 36.496668 ] } },
{ "type": "Feature", "properties": { "feature_name": "Window Rock", "feature_class": "Arch", "state_alpha": "AZ", "state_numeric": "04", "county_name": "Apache", "county_numeric": "001", "prim_lat_dec": 36.8911124, "prim_long_dec": -109.572333, "elev_in_ft": "5033", "map_name": "Walker Creek Reservoir", "date_created": "02\/08\/1980", "date_edited": "" }, "geometry": { "type": "Point", "coordinates": [ -109.572333, 36.891112 ] } },
{ "type": "Feature", "properties": { "feature_name": "Window Rock", "feature_class": "Arch", "state_alpha": "AZ", "state_numeric": "04", "county_name": "Apache", "county_numeric": "001", "prim_lat_dec": 36.3883345, "prim_long_dec": -109.6851103, "elev_in_ft": "5600", "map_name": "Windy Valley", "date_created": "02\/08\/1980", "date_edited": "11\/08\/2011" }, "geometry": { "type": "Point", "coordinates": [ -109.68511, 36.388334 ] } },
{ "type": "Feature", "properties": { "feature_name": "Wrather Arch", "feature_class": "Arch", "state_alpha": "AZ", "state_numeric": "04", "county_name": "Coconino", "county_numeric": "005", "prim_lat_dec": 36.9647222, "prim_long_dec": -111.7794444, "elev_in_ft": "4216", "map_name": "Wrather Arch", "date_created": "02\/08\/1980", "date_edited": "02\/23\/2010" }, "geometry": { "type": "Point", "coordinates": [ -111.779444, 36.964722 ] } },
{ "type": "Feature", "properties": { "feature_name": "Hole in Rock", "feature_class": "Arch", "state_alpha": "AZ", "state_numeric": "04", "county_name": "Coconino", "county_numeric": "005", "prim_lat_dec": 36.570269, "prim_long_dec": -111.4109829, "elev_in_ft": "5984", "map_name": "Dove Spring", "date_created": "06\/27\/1984", "date_edited": "" }, "geometry": { "type": "Point", "coordinates": [ -111.410983, 36.570269 ] } },
{ "type": "Feature", "properties": { "feature_name": "Kolb Arch", "feature_class": "Arch", "state_alpha": "AZ", "state_numeric": "04", "county_name": "Coconino", "county_numeric": "005", "prim_lat_dec": 36.2844283, "prim_long_dec": -111.9687785, "elev_in_ft": "6991", "map_name": "Point Imperial", "date_created": "06\/27\/1984", "date_edited": "11\/28\/2008" }, "geometry": { "type": "Point", "coordinates": [ -111.968778, 36.284428 ] } },
{ "type": "Feature", "properties": { "feature_name": "Alamo Window", "feature_class": "Arch", "state_alpha": "AZ", "state_numeric": "04", "county_name": "Mohave", "county_numeric": "015", "prim_lat_dec": 36.2641483, "prim_long_dec": -112.9182543, "elev_in_ft": "3294", "map_name": "Fern Glen Canyon", "date_created": "06\/27\/1984", "date_edited": "05\/13\/2010" }, "geometry": { "type": "Point", "coordinates": [ -112.918254, 36.264148 ] } },
{ "type": "Feature", "properties": { "feature_name": "Natural Arch", "feature_class": "Arch", "state_alpha": "AZ", "state_numeric": "04", "county_name": "Mohave", "county_numeric": "015", "prim_lat_dec": 35.8763759, "prim_long_dec": -113.3196537, "elev_in_ft": "2110", "map_name": "Granite Park", "date_created": "06\/27\/1984", "date_edited": "05\/13\/2010" }, "geometry": { "type": "Point", "coordinates": [ -113.319654, 35.876376 ] } },
{ "type": "Feature", "properties": { "feature_name": "Arch in the Sky", "feature_class": "Arch", "state_alpha": "AZ", "state_numeric": "04", "county_name": "Coconino", "county_numeric": "005", "prim_lat_dec": 36.8999965, "prim_long_dec": -110.9923662, "elev_in_ft": "5827", "map_name": "Chaiyahi Flat", "date_created": "06\/27\/1984", "date_edited": "10\/07\/2008" }, "geometry": { "type": "Point", "coordinates": [ -110.992366, 36.899997 ] } },
{ "type": "Feature", "properties": { "feature_name": "Hole in the Rock", "feature_class": "Arch", "state_alpha": "AZ", "state_numeric": "04", "county_name": "Maricopa", "county_numeric": "013", "prim_lat_dec": 33.4563889, "prim_long_dec": -111.9452778, "elev_in_ft": "1352", "map_name": "Tempe", "date_created": "06\/27\/1984", "date_edited": "06\/15\/2010" }, "geometry": { "type": "Point", "coordinates": [ -111.945278, 33.456389 ] } },
{ "type": "Feature", "properties": { "feature_name": "Triple Eye", "feature_class": "Arch", "state_alpha": "AZ", "state_numeric": "04", "county_name": "La Paz", "county_numeric": "012", "prim_lat_dec": 33.4986465, "prim_long_dec": -113.4368646, "elev_in_ft": "2323", "map_name": "Eagletail Mountains West", "date_created": "06\/27\/1984", "date_edited": "" }, "geometry": { "type": "Point", "coordinates": [ -113.436865, 33.498646 ] } },
{ "type": "Feature", "properties": { "feature_name": "Margaret Arch", "feature_class": "Arch", "state_alpha": "AZ", "state_numeric": "04", "county_name": "Coconino", "county_numeric": "005", "prim_lat_dec": 36.5480525, "prim_long_dec": -110.9562558, "elev_in_ft": "6821", "map_name": "Square Butte", "date_created": "06\/27\/1984", "date_edited": "" }, "geometry": { "type": "Point", "coordinates": [ -110.956256, 36.548052 ] } },
{ "type": "Feature", "properties": { "feature_name": "Jett Arch", "feature_class": "Arch", "state_alpha": "AZ", "state_numeric": "04", "county_name": "Coconino", "county_numeric": "005", "prim_lat_dec": 36.962215, "prim_long_dec": -111.1687597, "elev_in_ft": "4213", "map_name": "Face Canyon", "date_created": "05\/01\/1989", "date_edited": "" }, "geometry": { "type": "Point", "coordinates": [ -111.16876, 36.962215 ] } },
{ "type": "Feature", "properties": { "feature_name": "Devils Bridge", "feature_class": "Arch", "state_alpha": "AZ", "state_numeric": "04", "county_name": "Yavapai", "county_numeric": "025", "prim_lat_dec": 34.8976374, "prim_long_dec": -111.807498, "elev_in_ft": "4934", "map_name": "Wilson Mountain", "date_created": "02\/08\/1980", "date_edited": "05\/14\/2015" }, "geometry": { "type": "Point", "coordinates": [ -111.807498, 34.897637 ] } },
{ "type": "Feature", "properties": { "feature_name": "Fay Canyon Arch", "feature_class": "Arch", "state_alpha": "AZ", "state_numeric": "04", "county_name": "Yavapai", "county_numeric": "025", "prim_lat_dec": 34.909462, "prim_long_dec": -111.86085, "elev_in_ft": "4908", "map_name": "Wilson Mountain", "date_created": "02\/08\/1980", "date_edited": "02\/06\/2015" }, "geometry": { "type": "Point", "coordinates": [ -111.86085, 34.909462 ] } },
{ "type": "Feature", "properties": { "feature_name": "Tonto Natural Bridge", "feature_class": "Arch", "state_alpha": "AZ", "state_numeric": "04", "county_name": "Gila", "county_numeric": "007", "prim_lat_dec": 34.3205869, "prim_long_dec": -111.4565291, "elev_in_ft": "4485", "map_name": "Buckhead Mesa", "date_created": "02\/08\/1980", "date_edited": "" }, "geometry": { "type": "Point", "coordinates": [ -111.456529, 34.320587 ] } },
{ "type": "Feature", "properties": { "feature_name": "Vultee Arch", "feature_class": "Arch", "state_alpha": "AZ", "state_numeric": "04", "county_name": "Coconino", "county_numeric": "005", "prim_lat_dec": 34.9415594, "prim_long_dec": -111.7688064, "elev_in_ft": "5436", "map_name": "Wilson Mountain", "date_created": "02\/08\/1980", "date_edited": "02\/06\/2015" }, "geometry": { "type": "Point", "coordinates": [ -111.768806, 34.941559 ] } },
{ "type": "Feature", "properties": { "feature_name": "Window Rock", "feature_class": "Arch", "state_alpha": "AZ", "state_numeric": "04", "county_name": "Pima", "county_numeric": "019", "prim_lat_dec": 32.3772222, "prim_long_dec": -110.8580556, "elev_in_ft": "7077", "map_name": "Mount Lemmon", "date_created": "02\/08\/1980", "date_edited": "06\/15\/2010" }, "geometry": { "type": "Point", "coordinates": [ -110.858056, 32.377222 ] } },
{ "type": "Feature", "properties": { "feature_name": "Hartman Natural Bridge", "feature_class": "Arch", "state_alpha": "AZ", "state_numeric": "04", "county_name": "Coconino", "county_numeric": "005", "prim_lat_dec": 36.1952622, "prim_long_dec": -111.9198862, "elev_in_ft": "6073", "map_name": "Walhalla Plateau", "date_created": "06\/27\/1984", "date_edited": "" }, "geometry": { "type": "Point", "coordinates": [ -111.919886, 36.195262 ] } },
{ "type": "Feature", "properties": { "feature_name": "Ralph Natural Bridge", "feature_class": "Arch", "state_alpha": "AR", "state_numeric": "05", "county_name": "Marion", "county_numeric": "089", "prim_lat_dec": 36.1813889, "prim_long_dec": -92.6925, "elev_in_ft": "820", "map_name": "Yellville", "date_created": "04\/30\/1980", "date_edited": "02\/21\/2017" }, "geometry": { "type": "Point", "coordinates": [ -92.6925, 36.181389 ] } },
{ "type": "Feature", "properties": { "feature_name": "Hurricane Creek Natural Bridge", "feature_class": "Arch", "state_alpha": "AR", "state_numeric": "05", "county_name": "Johnson", "county_numeric": "071", "prim_lat_dec": 35.7189699, "prim_long_dec": -93.2243432, "elev_in_ft": "978", "map_name": "Fort Douglas", "date_created": "09\/01\/1991", "date_edited": "10\/14\/2009" }, "geometry": { "type": "Point", "coordinates": [ -93.224343, 35.71897 ] } },
{ "type": "Feature", "properties": { "feature_name": "Alum Cove Natural Bridge", "feature_class": "Arch", "state_alpha": "AR", "state_numeric": "05", "county_name": "Newton", "county_numeric": "101", "prim_lat_dec": 35.8620238, "prim_long_dec": -93.2337884, "elev_in_ft": "1946", "map_name": "Deer", "date_created": "09\/01\/1991", "date_edited": "10\/14\/2009" }, "geometry": { "type": "Point", "coordinates": [ -93.233788, 35.862024 ] } },
{ "type": "Feature", "properties": { "feature_name": "Hartselle Natural Bridge", "feature_class": "Arch", "state_alpha": "AL", "state_numeric": "01", "county_name": "Morgan", "county_numeric": "103", "prim_lat_dec": 34.4772222, "prim_long_dec": -86.8866667, "elev_in_ft": "745", "map_name": "Hartselle", "date_created": "12\/01\/2003", "date_edited": "10\/14\/2009" }, "geometry": { "type": "Point", "coordinates": [ -86.886667, 34.477222 ] } },
{ "type": "Feature", "properties": { "feature_name": "Double Natural Bridges", "feature_class": "Arch", "state_alpha": "AL", "state_numeric": "01", "county_name": "Wilcox", "county_numeric": "131", "prim_lat_dec": 31.8782081, "prim_long_dec": -87.6608336, "elev_in_ft": "213", "map_name": "Thomasville", "date_created": "12\/01\/2003", "date_edited": "" }, "geometry": { "type": "Point", "coordinates": [ -87.660834, 31.878208 ] } },
{ "type": "Feature", "properties": { "feature_name": "Natural Bridge of Alabama", "feature_class": "Arch", "state_alpha": "AL", "state_numeric": "01", "county_name": "Winston", "county_numeric": "133", "prim_lat_dec": 34.09416, "prim_long_dec": -87.61334, "elev_in_ft": "689", "map_name": "Lynn", "date_created": "09\/04\/1980", "date_edited": "06\/13\/2011" }, "geometry": { "type": "Point", "coordinates": [ -87.61334, 34.09416 ] } },
{ "type": "Feature", "properties": { "feature_name": "Chandler Natural Bridge", "feature_class": "Arch", "state_alpha": "AL", "state_numeric": "01", "county_name": "St. Clair", "county_numeric": "115", "prim_lat_dec": 33.9794444, "prim_long_dec": -86.2338889, "elev_in_ft": "659", "map_name": "Steele", "date_created": "12\/01\/2003", "date_edited": "01\/22\/2010" }, "geometry": { "type": "Point", "coordinates": [ -86.233889, 33.979444 ] } },
{ "type": "Feature", "properties": { "feature_name": "Window Rock", "feature_class": "Arch", "state_alpha": "CO", "state_numeric": "08", "county_name": "Mesa", "county_numeric": "077", "prim_lat_dec": 39.1055556, "prim_long_dec": -108.7258333, "elev_in_ft": "5436", "map_name": "Colorado National Monument", "date_created": "10\/13\/1978", "date_edited": "03\/16\/2011" }, "geometry": { "type": "Point", "coordinates": [ -108.725833, 39.105556 ] } },
{ "type": "Feature", "properties": { "feature_name": "The Keyhole", "feature_class": "Arch", "state_alpha": "CO", "state_numeric": "08", "county_name": "Larimer", "county_numeric": "069", "prim_lat_dec": 40.4230556, "prim_long_dec": -105.1625, "elev_in_ft": "5298", "map_name": "Masonville", "date_created": "10\/13\/1978", "date_edited": "03\/16\/2011" }, "geometry": { "type": "Point", "coordinates": [ -105.1625, 40.423056 ] } },
{ "type": "Feature", "properties": { "feature_name": "Juanita Arch", "feature_class": "Arch", "state_alpha": "CO", "state_numeric": "08", "county_name": "Mesa", "county_numeric": "077", "prim_lat_dec": 38.5741667, "prim_long_dec": -108.8936111, "elev_in_ft": "5256", "map_name": "Juanita Arch", "date_created": "10\/13\/1978", "date_edited": "03\/16\/2011" }, "geometry": { "type": "Point", "coordinates": [ -108.893611, 38.574167 ] } },
{ "type": "Feature", "properties": { "feature_name": "La Ventana", "feature_class": "Arch", "state_alpha": "CO", "state_numeric": "08", "county_name": "Saguache", "county_numeric": "109", "prim_lat_dec": 37.8119444, "prim_long_dec": -106.3761111, "elev_in_ft": "8957", "map_name": "Twin Mountains", "date_created": "10\/13\/1978", "date_edited": "03\/16\/2011" }, "geometry": { "type": "Point", "coordinates": [ -106.376111, 37.811944 ] } },
{ "type": "Feature", "properties": { "feature_name": "Will Minor Arch", "feature_class": "Arch", "state_alpha": "CO", "state_numeric": "08", "county_name": "Mesa", "county_numeric": "077", "prim_lat_dec": 39.1347042, "prim_long_dec": -108.9073281, "elev_in_ft": "5479", "map_name": "Ruby Canyon", "date_created": "05\/01\/1993", "date_edited": "" }, "geometry": { "type": "Point", "coordinates": [ -108.907328, 39.134704 ] } },
{ "type": "Feature", "properties": { "feature_name": "Arch of the Navarro", "feature_class": "Arch", "state_alpha": "CA", "state_numeric": "06", "county_name": "Mendocino", "county_numeric": "045", "prim_lat_dec": 39.1912906, "prim_long_dec": -123.7652927, "elev_in_ft": "0", "map_name": "Albion", "date_created": "01\/19\/1981", "date_edited": "" }, "geometry": { "type": "Point", "coordinates": [ -123.765293, 39.191291 ] } },
{ "type": "Feature", "properties": { "feature_name": "Arch Rock", "feature_class": "Arch", "state_alpha": "CA", "state_numeric": "06", "county_name": "Fresno", "county_numeric": "019", "prim_lat_dec": 37.4513889, "prim_long_dec": -119.0672222, "elev_in_ft": "10371", "map_name": "Sharktooth Peak", "date_created": "01\/19\/1981", "date_edited": "11\/21\/2012" }, "geometry": { "type": "Point", "coordinates": [ -119.067222, 37.451389 ] } },
{ "type": "Feature", "properties": { "feature_name": "Arched Rock", "feature_class": "Arch", "state_alpha": "CA", "state_numeric": "06", "county_name": "Sonoma", "county_numeric": "097", "prim_lat_dec": 38.3693604, "prim_long_dec": -123.0752801, "elev_in_ft": "0", "map_name": "Bodega Head", "date_created": "01\/19\/1981", "date_edited": "02\/14\/2012" }, "geometry": { "type": "Point", "coordinates": [ -123.07528, 38.36936 ] } },
{ "type": "Feature", "properties": { "feature_name": "Arched Rock", "feature_class": "Arch", "state_alpha": "CA", "state_numeric": "06", "county_name": "Sonoma", "county_numeric": "097", "prim_lat_dec": 38.4326925, "prim_long_dec": -123.1263927, "elev_in_ft": "82", "map_name": "Arched Rock", "date_created": "01\/19\/1981", "date_edited": "02\/14\/2012" }, "geometry": { "type": "Point", "coordinates": [ -123.126393, 38.432693 ] } },
{ "type": "Feature", "properties": { "feature_name": "Hardy Rock", "feature_class": "Arch", "state_alpha": "CA", "state_numeric": "06", "county_name": "Mendocino", "county_numeric": "045", "prim_lat_dec": 39.7069444, "prim_long_dec": -123.8077778, "elev_in_ft": "0", "map_name": "Westport", "date_created": "01\/19\/1981", "date_edited": "02\/14\/2012" }, "geometry": { "type": "Point", "coordinates": [ -123.807778, 39.706944 ] } },
{ "type": "Feature", "properties": { "feature_name": "Morgan Rock", "feature_class": "Arch", "state_alpha": "CA", "state_numeric": "06", "county_name": "Mendocino", "county_numeric": "045", "prim_lat_dec": 39.9170922, "prim_long_dec": -123.9472473, "elev_in_ft": "0", "map_name": "Bear Harbor", "date_created": "01\/19\/1981", "date_edited": "02\/15\/2012" }, "geometry": { "type": "Point", "coordinates": [ -123.947247, 39.917092 ] } },
{ "type": "Feature", "properties": { "feature_name": "Needle Rock", "feature_class": "Arch", "state_alpha": "CA", "state_numeric": "06", "county_name": "Mendocino", "county_numeric": "045", "prim_lat_dec": 39.9445444, "prim_long_dec": -123.9686604, "elev_in_ft": "56", "map_name": "Bear Harbor", "date_created": "01\/19\/1981", "date_edited": "01\/26\/2017" }, "geometry": { "type": "Point", "coordinates": [ -123.96866, 39.944544 ] } },
{ "type": "Feature", "properties": { "feature_name": "White Rock", "feature_class": "Arch", "state_alpha": "CA", "state_numeric": "06", "county_name": "Del Norte", "county_numeric": "015", "prim_lat_dec": 41.783448, "prim_long_dec": -124.2598058, "elev_in_ft": "62", "map_name": "Crescent City OE W", "date_created": "01\/19\/1981", "date_edited": "02\/15\/2012" }, "geometry": { "type": "Point", "coordinates": [ -124.259806, 41.783448 ] } },
{ "type": "Feature", "properties": { "feature_name": "Arch Rock", "feature_class": "Arch", "state_alpha": "CA", "state_numeric": "06", "county_name": "Orange", "county_numeric": "059", "prim_lat_dec": 33.5875903, "prim_long_dec": -117.8676976, "elev_in_ft": "0", "map_name": "Laguna Beach", "date_created": "01\/19\/1981", "date_edited": "02\/06\/2015" }, "geometry": { "type": "Point", "coordinates": [ -117.867698, 33.58759 ] } },
{ "type": "Feature", "properties": { "feature_name": "Arch Rock", "feature_class": "Arch", "state_alpha": "CA", "state_numeric": "06", "county_name": "Ventura", "county_numeric": "111", "prim_lat_dec": 34.0172267, "prim_long_dec": -119.3565026, "elev_in_ft": "0", "map_name": "Anacapa Island", "date_created": "01\/19\/1981", "date_edited": "11\/21\/2012" }, "geometry": { "type": "Point", "coordinates": [ -119.356503, 34.017227 ] } },
{ "type": "Feature", "properties": { "feature_name": "Kramer Arch", "feature_class": "Arch", "state_alpha": "CA", "state_numeric": "06", "county_name": "San Bernardino", "county_numeric": "071", "prim_lat_dec": 34.9510941, "prim_long_dec": -116.8428135, "elev_in_ft": "2579", "map_name": "Yermo", "date_created": "01\/19\/1981", "date_edited": "11\/28\/2016" }, "geometry": { "type": "Point", "coordinates": [ -116.842814, 34.951094 ] } },
{ "type": "Feature", "properties": { "feature_name": "Natural Arch", "feature_class": "Arch", "state_alpha": "CA", "state_numeric": "06", "county_name": "San Bernardino", "county_numeric": "071", "prim_lat_dec": 34.8819311, "prim_long_dec": -116.1005666, "elev_in_ft": "2323", "map_name": "Broadwell Mesa", "date_created": "01\/19\/1981", "date_edited": "" }, "geometry": { "type": "Point", "coordinates": [ -116.100567, 34.881931 ] } },
{ "type": "Feature", "properties": { "feature_name": "Arch Rock", "feature_class": "Arch", "state_alpha": "CA", "state_numeric": "06", "county_name": "Riverside", "county_numeric": "065", "prim_lat_dec": 33.9863944, "prim_long_dec": -116.0155557, "elev_in_ft": "3812", "map_name": "Malapai Hill", "date_created": "06\/14\/2000", "date_edited": "" }, "geometry": { "type": "Point", "coordinates": [ -116.015556, 33.986394 ] } },
{ "type": "Feature", "properties": { "feature_name": "Captain Jacks Bridge", "feature_class": "Arch", "state_alpha": "CA", "state_numeric": "06", "county_name": "Siskiyou", "county_numeric": "093", "prim_lat_dec": 41.746825, "prim_long_dec": -121.4936038, "elev_in_ft": "4403", "map_name": "Caldwell Butte", "date_created": "01\/19\/1981", "date_edited": "08\/25\/2011" }, "geometry": { "type": "Point", "coordinates": [ -121.493604, 41.746825 ] } },
{ "type": "Feature", "properties": { "feature_name": "Guano Bridge", "feature_class": "Arch", "state_alpha": "CA", "state_numeric": "06", "county_name": "Siskiyou", "county_numeric": "093", "prim_lat_dec": 41.8008, "prim_long_dec": -121.484, "elev_in_ft": "4167", "map_name": "The Panhandle", "date_created": "01\/19\/1981", "date_edited": "08\/25\/2011" }, "geometry": { "type": "Point", "coordinates": [ -121.484, 41.8008 ] } },
{ "type": "Feature", "properties": { "feature_name": "Irish Bridge", "feature_class": "Arch", "state_alpha": "CA", "state_numeric": "06", "county_name": "Siskiyou", "county_numeric": "093", "prim_lat_dec": 41.7309914, "prim_long_dec": -121.5174933, "elev_in_ft": "4610", "map_name": "Schonchin Butte", "date_created": "01\/19\/1981", "date_edited": "" }, "geometry": { "type": "Point", "coordinates": [ -121.517493, 41.730991 ] } },
{ "type": "Feature", "properties": { "feature_name": "Symbol Bridge", "feature_class": "Arch", "state_alpha": "CA", "state_numeric": "06", "county_name": "Siskiyou", "county_numeric": "093", "prim_lat_dec": 41.7334912, "prim_long_dec": -121.5263824, "elev_in_ft": "4685", "map_name": "Schonchin Butte", "date_created": "01\/19\/1981", "date_edited": "" }, "geometry": { "type": "Point", "coordinates": [ -121.526382, 41.733491 ] } },
{ "type": "Feature", "properties": { "feature_name": "Death Valley Natural Bridge", "feature_class": "Arch", "state_alpha": "CA", "state_numeric": "06", "county_name": "Inyo", "county_numeric": "027", "prim_lat_dec": 36.2849513, "prim_long_dec": -116.7653277, "elev_in_ft": "620", "map_name": "Devils Golf Course", "date_created": "06\/14\/2000", "date_edited": "" }, "geometry": { "type": "Point", "coordinates": [ -116.765328, 36.284951 ] } },
{ "type": "Feature", "properties": { "feature_name": "Arch Rock", "feature_class": "Arch", "state_alpha": "CA", "state_numeric": "06", "county_name": "Marin", "county_numeric": "041", "prim_lat_dec": 37.9872222, "prim_long_dec": -122.8133333, "elev_in_ft": "59", "map_name": "Double Point", "date_created": "12\/01\/1991", "date_edited": "02\/14\/2012" }, "geometry": { "type": "Point", "coordinates": [ -122.813333, 37.987222 ] } },
{ "type": "Feature", "properties": { "feature_name": "Arch Rock", "feature_class": "Arch", "state_alpha": "CA", "state_numeric": "06", "county_name": "Santa Barbara", "county_numeric": "083", "prim_lat_dec": 34.0566667, "prim_long_dec": -119.7966667, "elev_in_ft": "43", "map_name": "Santa Cruz Island B", "date_created": "01\/19\/1981", "date_edited": "11\/21\/2012" }, "geometry": { "type": "Point", "coordinates": [ -119.796667, 34.056667 ] } },
{ "type": "Feature", "properties": { "feature_name": "Natural Bridge", "feature_class": "Arch", "state_alpha": "CA", "state_numeric": "06", "county_name": "Calaveras", "county_numeric": "009", "prim_lat_dec": 38.0546446, "prim_long_dec": -120.4771426, "elev_in_ft": "1181", "map_name": "Columbia", "date_created": "01\/19\/1981", "date_edited": "" }, "geometry": { "type": "Point", "coordinates": [ -120.477143, 38.054645 ] } },
{ "type": "Feature", "properties": { "feature_name": "Natural Bridge", "feature_class": "Arch", "state_alpha": "FL", "state_numeric": "12", "county_name": "Walton", "county_numeric": "131", "prim_lat_dec": 30.9865937, "prim_long_dec": -86.2121701, "elev_in_ft": "177", "map_name": "Gaskin", "date_created": "10\/19\/1979", "date_edited": "02\/06\/2015" }, "geometry": { "type": "Point", "coordinates": [ -86.21217, 30.986594 ] } },
{ "type": "Feature", "properties": { "feature_name": "Honopu Arch", "feature_class": "Arch", "state_alpha": "HI", "state_numeric": "15", "county_name": "Kauai", "county_numeric": "007", "prim_lat_dec": 22.166928, "prim_long_dec": -159.671118, "elev_in_ft": "243", "map_name": "Makaha Point", "date_created": "04\/01\/1994", "date_edited": "" }, "geometry": { "type": "Point", "coordinates": [ -159.671118, 22.166928 ] } },
{ "type": "Feature", "properties": { "feature_name": "Bridge of Tears", "feature_class": "Arch", "state_alpha": "ID", "state_numeric": "16", "county_name": "Butte", "county_numeric": "023", "prim_lat_dec": 43.376849, "prim_long_dec": -113.4327885, "elev_in_ft": "5463", "map_name": "The Watchman", "date_created": "06\/21\/1979", "date_edited": "" }, "geometry": { "type": "Point", "coordinates": [ -113.432789, 43.376849 ] } },
{ "type": "Feature", "properties": { "feature_name": "The Arch", "feature_class": "Arch", "state_alpha": "ID", "state_numeric": "16", "county_name": "Owyhee", "county_numeric": "073", "prim_lat_dec": 42.2110154, "prim_long_dec": -115.546745, "elev_in_ft": "4800", "map_name": "The Arch", "date_created": "06\/21\/1979", "date_edited": "06\/23\/2017" }, "geometry": { "type": "Point", "coordinates": [ -115.546745, 42.211015 ] } },
{ "type": "Feature", "properties": { "feature_name": "Rainbow Rock", "feature_class": "Arch", "state_alpha": "ID", "state_numeric": "16", "county_name": "Valley", "county_numeric": "085", "prim_lat_dec": 44.9857373, "prim_long_dec": -115.5978945, "elev_in_ft": "6745", "map_name": "Caton Lake", "date_created": "06\/21\/1979", "date_edited": "" }, "geometry": { "type": "Point", "coordinates": [ -115.597894, 44.985737 ] } },
{ "type": "Feature", "properties": { "feature_name": "Pomona Natural Bridge", "feature_class": "Arch", "state_alpha": "IL", "state_numeric": "17", "county_name": "Jackson", "county_numeric": "077", "prim_lat_dec": 37.6481058, "prim_long_dec": -89.3442559, "elev_in_ft": "522", "map_name": "Pomona", "date_created": "09\/30\/1999", "date_edited": "" }, "geometry": { "type": "Point", "coordinates": [ -89.344256, 37.648106 ] } },
{ "type": "Feature", "properties": { "feature_name": "Rock House Natural Bridge", "feature_class": "Arch", "state_alpha": "KY", "state_numeric": "21", "county_name": "Russell", "county_numeric": "207", "prim_lat_dec": 36.885064, "prim_long_dec": -85.2363485, "elev_in_ft": "653", "map_name": "Creelsboro", "date_created": "09\/20\/1979", "date_edited": "" }, "geometry": { "type": "Point", "coordinates": [ -85.236349, 36.885064 ] } },
{ "type": "Feature", "properties": { "feature_name": "Silvermine Arch", "feature_class": "Arch", "state_alpha": "KY", "state_numeric": "21", "county_name": "Wolfe", "county_numeric": "237", "prim_lat_dec": 37.7873067, "prim_long_dec": -83.6243559, "elev_in_ft": "1056", "map_name": "Pomeroyton", "date_created": "09\/20\/1979", "date_edited": "" }, "geometry": { "type": "Point", "coordinates": [ -83.624356, 37.787307 ] } },
{ "type": "Feature", "properties": { "feature_name": "Angel Windows", "feature_class": "Arch", "state_alpha": "KY", "state_numeric": "21", "county_name": "Wolfe", "county_numeric": "237", "prim_lat_dec": 37.8000847, "prim_long_dec": -83.5962995, "elev_in_ft": "1079", "map_name": "Pomeroyton", "date_created": "09\/20\/1979", "date_edited": "" }, "geometry": { "type": "Point", "coordinates": [ -83.5963, 37.800085 ] } },
{ "type": "Feature", "properties": { "feature_name": "Castle Arch", "feature_class": "Arch", "state_alpha": "KY", "state_numeric": "21", "county_name": "Wolfe", "county_numeric": "237", "prim_lat_dec": 37.8123069, "prim_long_dec": -83.5796323, "elev_in_ft": "1010", "map_name": "Pomeroyton", "date_created": "09\/20\/1979", "date_edited": "" }, "geometry": { "type": "Point", "coordinates": [ -83.579632, 37.812307 ] } },
{ "type": "Feature", "properties": { "feature_name": "Cloud Splitter", "feature_class": "Arch", "state_alpha": "KY", "state_numeric": "21", "county_name": "Menifee", "county_numeric": "165", "prim_lat_dec": 37.837584, "prim_long_dec": -83.6204671, "elev_in_ft": "1093", "map_name": "Pomeroyton", "date_created": "09\/20\/1979", "date_edited": "" }, "geometry": { "type": "Point", "coordinates": [ -83.620467, 37.837584 ] } },
{ "type": "Feature", "properties": { "feature_name": "Double Arch", "feature_class": "Arch", "state_alpha": "KY", "state_numeric": "21", "county_name": "Powell", "county_numeric": "197", "prim_lat_dec": 37.8370277, "prim_long_dec": -83.6843579, "elev_in_ft": "1161", "map_name": "Slade", "date_created": "09\/20\/1979", "date_edited": "" }, "geometry": { "type": "Point", "coordinates": [ -83.684358, 37.837028 ] } },
{ "type": "Feature", "properties": { "feature_name": "Grays Arch", "feature_class": "Arch", "state_alpha": "KY", "state_numeric": "21", "county_name": "Powell", "county_numeric": "197", "prim_lat_dec": 37.817306, "prim_long_dec": -83.6582459, "elev_in_ft": "1010", "map_name": "Slade", "date_created": "09\/20\/1979", "date_edited": "" }, "geometry": { "type": "Point", "coordinates": [ -83.658246, 37.817306 ] } },
{ "type": "Feature", "properties": { "feature_name": "Half Moon Arch", "feature_class": "Arch", "state_alpha": "KY", "state_numeric": "21", "county_name": "Wolfe", "county_numeric": "237", "prim_lat_dec": 37.8195286, "prim_long_dec": -83.6215782, "elev_in_ft": "984", "map_name": "Pomeroyton", "date_created": "09\/20\/1979", "date_edited": "" }, "geometry": { "type": "Point", "coordinates": [ -83.621578, 37.819529 ] } },
{ "type": "Feature", "properties": { "feature_name": "Nada Arches", "feature_class": "Arch", "state_alpha": "KY", "state_numeric": "21", "county_name": "Powell", "county_numeric": "197", "prim_lat_dec": 37.8220276, "prim_long_dec": -83.7096365, "elev_in_ft": "1184", "map_name": "Slade", "date_created": "09\/20\/1979", "date_edited": "" }, "geometry": { "type": "Point", "coordinates": [ -83.709637, 37.822028 ] } },
{ "type": "Feature", "properties": { "feature_name": "Natural Arch", "feature_class": "Arch", "state_alpha": "KY", "state_numeric": "21", "county_name": "McCreary", "county_numeric": "147", "prim_lat_dec": 36.8450781, "prim_long_dec": -84.511328, "elev_in_ft": "1155", "map_name": "Nevelsville", "date_created": "09\/20\/1979", "date_edited": "03\/03\/2009" }, "geometry": { "type": "Point", "coordinates": [ -84.511328, 36.845078 ] } },
{ "type": "Feature", "properties": { "feature_name": "Natural Bridge", "feature_class": "Arch", "state_alpha": "KY", "state_numeric": "21", "county_name": "Powell", "county_numeric": "197", "prim_lat_dec": 37.772584, "prim_long_dec": -83.6843577, "elev_in_ft": "1280", "map_name": "Slade", "date_created": "09\/20\/1979", "date_edited": "" }, "geometry": { "type": "Point", "coordinates": [ -83.684358, 37.772584 ] } },
{ "type": "Feature", "properties": { "feature_name": "Natural Bridge", "feature_class": "Arch", "state_alpha": "KY", "state_numeric": "21", "county_name": "McCreary", "county_numeric": "147", "prim_lat_dec": 36.6706334, "prim_long_dec": -84.5177168, "elev_in_ft": "1211", "map_name": "Barthell", "date_created": "09\/20\/1979", "date_edited": "08\/25\/2011" }, "geometry": { "type": "Point", "coordinates": [ -84.517717, 36.670633 ] } },
{ "type": "Feature", "properties": { "feature_name": "Owls Window", "feature_class": "Arch", "state_alpha": "KY", "state_numeric": "21", "county_name": "Powell", "county_numeric": "197", "prim_lat_dec": 37.7803617, "prim_long_dec": -83.6851912, "elev_in_ft": "1207", "map_name": "Slade", "date_created": "09\/20\/1979", "date_edited": "" }, "geometry": { "type": "Point", "coordinates": [ -83.685191, 37.780362 ] } },
{ "type": "Feature", "properties": { "feature_name": "Princess Arch", "feature_class": "Arch", "state_alpha": "KY", "state_numeric": "21", "county_name": "Wolfe", "county_numeric": "237", "prim_lat_dec": 37.8275841, "prim_long_dec": -83.6201893, "elev_in_ft": "1138", "map_name": "Pomeroyton", "date_created": "09\/20\/1979", "date_edited": "" }, "geometry": { "type": "Point", "coordinates": [ -83.620189, 37.827584 ] } },
{ "type": "Feature", "properties": { "feature_name": "Ravens Window", "feature_class": "Arch", "state_alpha": "KY", "state_numeric": "21", "county_name": "Powell", "county_numeric": "197", "prim_lat_dec": 37.8353613, "prim_long_dec": -83.6671352, "elev_in_ft": "1060", "map_name": "Slade", "date_created": "09\/20\/1979", "date_edited": "" }, "geometry": { "type": "Point", "coordinates": [ -83.667135, 37.835361 ] } },
{ "type": "Feature", "properties": { "feature_name": "Red-byrd Arch", "feature_class": "Arch", "state_alpha": "KY", "state_numeric": "21", "county_name": "Wolfe", "county_numeric": "237", "prim_lat_dec": 37.8148072, "prim_long_dec": -83.5504648, "elev_in_ft": "988", "map_name": "Pomeroyton", "date_created": "09\/20\/1979", "date_edited": "" }, "geometry": { "type": "Point", "coordinates": [ -83.550465, 37.814807 ] } },
{ "type": "Feature", "properties": { "feature_name": "Rock Bridge Arch", "feature_class": "Arch", "state_alpha": "KY", "state_numeric": "21", "county_name": "Wolfe", "county_numeric": "237", "prim_lat_dec": 37.7686965, "prim_long_dec": -83.5582427, "elev_in_ft": "955", "map_name": "Pomeroyton", "date_created": "09\/20\/1979", "date_edited": "" }, "geometry": { "type": "Point", "coordinates": [ -83.558243, 37.768696 ] } },
{ "type": "Feature", "properties": { "feature_name": "Sand Gap Arch", "feature_class": "Arch", "state_alpha": "KY", "state_numeric": "21", "county_name": "Powell", "county_numeric": "197", "prim_lat_dec": 37.7823057, "prim_long_dec": -83.7213034, "elev_in_ft": "1260", "map_name": "Slade", "date_created": "09\/20\/1979", "date_edited": "" }, "geometry": { "type": "Point", "coordinates": [ -83.721303, 37.782306 ] } },
{ "type": "Feature", "properties": { "feature_name": "Short Creek Arch", "feature_class": "Arch", "state_alpha": "KY", "state_numeric": "21", "county_name": "Powell", "county_numeric": "197", "prim_lat_dec": 37.8725825, "prim_long_dec": -83.7179703, "elev_in_ft": "1040", "map_name": "Slade", "date_created": "09\/20\/1979", "date_edited": "" }, "geometry": { "type": "Point", "coordinates": [ -83.71797, 37.872583 ] } },
{ "type": "Feature", "properties": { "feature_name": "Sky Bridge", "feature_class": "Arch", "state_alpha": "KY", "state_numeric": "21", "county_name": "Wolfe", "county_numeric": "237", "prim_lat_dec": 37.8184179, "prim_long_dec": -83.5804658, "elev_in_ft": "1066", "map_name": "Pomeroyton", "date_created": "09\/20\/1979", "date_edited": "12\/03\/2007" }, "geometry": { "type": "Point", "coordinates": [ -83.580466, 37.818418 ] } },
{ "type": "Feature", "properties": { "feature_name": "Slade Twin Arches", "feature_class": "Arch", "state_alpha": "KY", "state_numeric": "21", "county_name": "Powell", "county_numeric": "197", "prim_lat_dec": 37.7919444, "prim_long_dec": -83.7086111, "elev_in_ft": "892", "map_name": "Slade", "date_created": "09\/20\/1979", "date_edited": "12\/14\/2006" }, "geometry": { "type": "Point", "coordinates": [ -83.708611, 37.791944 ] } },
{ "type": "Feature", "properties": { "feature_name": "Star Gap Arch", "feature_class": "Arch", "state_alpha": "KY", "state_numeric": "21", "county_name": "Powell", "county_numeric": "197", "prim_lat_dec": 37.8220278, "prim_long_dec": -83.6938027, "elev_in_ft": "1319", "map_name": "Slade", "date_created": "09\/20\/1979", "date_edited": "" }, "geometry": { "type": "Point", "coordinates": [ -83.693803, 37.822028 ] } },
{ "type": "Feature", "properties": { "feature_name": "Turtle Back Arch", "feature_class": "Arch", "state_alpha": "KY", "state_numeric": "21", "county_name": "Wolfe", "county_numeric": "237", "prim_lat_dec": 37.7764742, "prim_long_dec": -83.5635207, "elev_in_ft": "971", "map_name": "Pomeroyton", "date_created": "09\/20\/1979", "date_edited": "" }, "geometry": { "type": "Point", "coordinates": [ -83.563521, 37.776474 ] } },
{ "type": "Feature", "properties": { "feature_name": "Whites Branch Arch", "feature_class": "Arch", "state_alpha": "KY", "state_numeric": "21", "county_name": "Powell", "county_numeric": "197", "prim_lat_dec": 37.7534173, "prim_long_dec": -83.7051917, "elev_in_ft": "1230", "map_name": "Slade", "date_created": "09\/20\/1979", "date_edited": "" }, "geometry": { "type": "Point", "coordinates": [ -83.705192, 37.753417 ] } },
{ "type": "Feature", "properties": { "feature_name": "Whittleton Arch", "feature_class": "Arch", "state_alpha": "KY", "state_numeric": "21", "county_name": "Wolfe", "county_numeric": "237", "prim_lat_dec": 37.7831397, "prim_long_dec": -83.6638016, "elev_in_ft": "1194", "map_name": "Slade", "date_created": "09\/20\/1979", "date_edited": "" }, "geometry": { "type": "Point", "coordinates": [ -83.663802, 37.78314 ] } },
{ "type": "Feature", "properties": { "feature_name": "Hidden Arch", "feature_class": "Arch", "state_alpha": "KY", "state_numeric": "21", "county_name": "Powell", "county_numeric": "197", "prim_lat_dec": 37.7884176, "prim_long_dec": -83.643801, "elev_in_ft": "1171", "map_name": "Slade", "date_created": "11\/01\/1991", "date_edited": "" }, "geometry": { "type": "Point", "coordinates": [ -83.643801, 37.788418 ] } },
{ "type": "Feature", "properties": { "feature_name": "Natural Bridge of New England", "feature_class": "Arch", "state_alpha": "MA", "state_numeric": "25", "county_name": "Berkshire", "county_numeric": "003", "prim_lat_dec": 42.7074204, "prim_long_dec": -73.0927749, "elev_in_ft": "945", "map_name": "North Adams", "date_created": "08\/27\/2002", "date_edited": "02\/12\/2015" }, "geometry": { "type": "Point", "coordinates": [ -73.092775, 42.70742 ] } },
{ "type": "Feature", "properties": { "feature_name": "Arch Rock", "feature_class": "Arch", "state_alpha": "MI", "state_numeric": "26", "county_name": "Mackinac", "county_numeric": "097", "prim_lat_dec": 45.8577908, "prim_long_dec": -84.6072667, "elev_in_ft": "712", "map_name": "Round Island", "date_created": "04\/14\/1980", "date_edited": "" }, "geometry": { "type": "Point", "coordinates": [ -84.607267, 45.857791 ] } },
{ "type": "Feature", "properties": { "feature_name": "Clifty Creek Natural Bridge", "feature_class": "Arch", "state_alpha": "MO", "state_numeric": "29", "county_name": "Maries", "county_numeric": "125", "prim_lat_dec": 38.0366667, "prim_long_dec": -91.9758333, "elev_in_ft": "699", "map_name": "Nagogami Lodge", "date_created": "08\/01\/1991", "date_edited": "06\/30\/2011" }, "geometry": { "type": "Point", "coordinates": [ -91.975833, 38.036667 ] } },
{ "type": "Feature", "properties": { "feature_name": "Sandy Creek Natural Bridge", "feature_class": "Arch", "state_alpha": "MO", "state_numeric": "29", "county_name": "Lincoln", "county_numeric": "113", "prim_lat_dec": 39.1930556, "prim_long_dec": -91.1058333, "elev_in_ft": "541", "map_name": "Eolia", "date_created": "01\/01\/1991", "date_edited": "06\/30\/2011" }, "geometry": { "type": "Point", "coordinates": [ -91.105833, 39.193056 ] } },
{ "type": "Feature", "properties": { "feature_name": "DuChien Cave Natural Bridge", "feature_class": "Arch", "state_alpha": "MO", "state_numeric": "29", "county_name": "Pike", "county_numeric": "163", "prim_lat_dec": 39.4413889, "prim_long_dec": -91.3008333, "elev_in_ft": "699", "map_name": "Frankford", "date_created": "05\/01\/1990", "date_edited": "06\/30\/2011" }, "geometry": { "type": "Point", "coordinates": [ -91.300833, 39.441389 ] } },
{ "type": "Feature", "properties": { "feature_name": "Hahatonka Natural Bridge", "feature_class": "Arch", "state_alpha": "MO", "state_numeric": "29", "county_name": "Camden", "county_numeric": "029", "prim_lat_dec": 37.97417, "prim_long_dec": -92.76333, "elev_in_ft": "804", "map_name": "Hahatonka", "date_created": "06\/01\/1990", "date_edited": "05\/27\/2009" }, "geometry": { "type": "Point", "coordinates": [ -92.76333, 37.97417 ] } },
{ "type": "Feature", "properties": { "feature_name": "Cassville Natural Bridge", "feature_class": "Arch", "state_alpha": "MO", "state_numeric": "29", "county_name": "Barry", "county_numeric": "009", "prim_lat_dec": 36.6188889, "prim_long_dec": -93.7816667, "elev_in_ft": "1260", "map_name": "Eagle Rock", "date_created": "10\/24\/1980", "date_edited": "06\/30\/2011" }, "geometry": { "type": "Point", "coordinates": [ -93.781667, 36.618889 ] } },
{ "type": "Feature", "properties": { "feature_name": "St James Natural Bridge", "feature_class": "Arch", "state_alpha": "MO", "state_numeric": "29", "county_name": "Phelps", "county_numeric": "161", "prim_lat_dec": 37.9810839, "prim_long_dec": -91.5749766, "elev_in_ft": "850", "map_name": "Maramec Spring", "date_created": "10\/24\/1980", "date_edited": "02\/06\/2015" }, "geometry": { "type": "Point", "coordinates": [ -91.574977, 37.981084 ] } },
{ "type": "Feature", "properties": { "feature_name": "Rock Bridge", "feature_class": "Arch", "state_alpha": "MO", "state_numeric": "29", "county_name": "Boone", "county_numeric": "019", "prim_lat_dec": 38.8725368, "prim_long_dec": -92.3260183, "elev_in_ft": "617", "map_name": "Ashland", "date_created": "10\/24\/1980", "date_edited": "06\/30\/2011" }, "geometry": { "type": "Point", "coordinates": [ -92.326018, 38.872537 ] } },
{ "type": "Feature", "properties": { "feature_name": "Turner Natural Bridge", "feature_class": "Arch", "state_alpha": "MO", "state_numeric": "29", "county_name": "Shannon", "county_numeric": "203", "prim_lat_dec": 37.3764355, "prim_long_dec": -91.2073533, "elev_in_ft": "1047", "map_name": "Bunker", "date_created": "10\/24\/1980", "date_edited": "06\/30\/2011" }, "geometry": { "type": "Point", "coordinates": [ -91.207353, 37.376435 ] } },
{ "type": "Feature", "properties": { "feature_name": "Hole-in-the-Rock", "feature_class": "Arch", "state_alpha": "MT", "state_numeric": "30", "county_name": "Garfield", "county_numeric": "033", "prim_lat_dec": 46.8655503, "prim_long_dec": -107.1781294, "elev_in_ft": "3051", "map_name": "Hole-in-the-Rock", "date_created": "04\/04\/1980", "date_edited": "" }, "geometry": { "type": "Point", "coordinates": [ -107.178129, 46.86555 ] } },
{ "type": "Feature", "properties": { "feature_name": "Triple Arches", "feature_class": "Arch", "state_alpha": "MT", "state_numeric": "30", "county_name": "Flathead", "county_numeric": "029", "prim_lat_dec": 48.7174752, "prim_long_dec": -113.7181703, "elev_in_ft": "6181", "map_name": "Logan Pass", "date_created": "04\/04\/1980", "date_edited": "" }, "geometry": { "type": "Point", "coordinates": [ -113.71817, 48.717475 ] } },
{ "type": "Feature", "properties": { "feature_name": "The Arch", "feature_class": "Arch", "state_alpha": "MT", "state_numeric": "30", "county_name": "Judith Basin", "county_numeric": "045", "prim_lat_dec": 47.1496871, "prim_long_dec": -110.5652149, "elev_in_ft": "5531", "map_name": "The Arch", "date_created": "04\/04\/1980", "date_edited": "" }, "geometry": { "type": "Point", "coordinates": [ -110.565215, 47.149687 ] } },
{ "type": "Feature", "properties": { "feature_name": "Window Rock", "feature_class": "Arch", "state_alpha": "MT", "state_numeric": "30", "county_name": "Gallatin", "county_numeric": "031", "prim_lat_dec": 45.4540981, "prim_long_dec": -110.9807773, "elev_in_ft": "8350", "map_name": "Fridley Peak", "date_created": "04\/04\/1980", "date_edited": "" }, "geometry": { "type": "Point", "coordinates": [ -110.980777, 45.454098 ] } },
{ "type": "Feature", "properties": { "feature_name": "The Arch", "feature_class": "Arch", "state_alpha": "NV", "state_numeric": "32", "county_name": "Lincoln", "county_numeric": "017", "prim_lat_dec": 37.9219075, "prim_long_dec": -114.1108122, "elev_in_ft": "6480", "map_name": "Deer Lodge Canyon", "date_created": "12\/12\/1980", "date_edited": "" }, "geometry": { "type": "Point", "coordinates": [ -114.110812, 37.921908 ] } },
{ "type": "Feature", "properties": { "feature_name": "Osceola Arch", "feature_class": "Arch", "state_alpha": "NV", "state_numeric": "32", "county_name": "White Pine", "county_numeric": "033", "prim_lat_dec": 39.1327218, "prim_long_dec": -114.3947235, "elev_in_ft": "7014", "map_name": "South Bastian Spring", "date_created": "12\/01\/1989", "date_edited": "" }, "geometry": { "type": "Point", "coordinates": [ -114.394723, 39.132722 ] } },
{ "type": "Feature", "properties": { "feature_name": "Lexington Arch", "feature_class": "Arch", "state_alpha": "NV", "state_numeric": "32", "county_name": "White Pine", "county_numeric": "033", "prim_lat_dec": 38.8441158, "prim_long_dec": -114.2083253, "elev_in_ft": "8451", "map_name": "Arch Canyon", "date_created": "12\/01\/1989", "date_edited": "" }, "geometry": { "type": "Point", "coordinates": [ -114.208325, 38.844116 ] } },
{ "type": "Feature", "properties": { "feature_name": "Hole in the Mountain", "feature_class": "Arch", "state_alpha": "NV", "state_numeric": "32", "county_name": "Elko", "county_numeric": "007", "prim_lat_dec": 40.9471452, "prim_long_dec": -115.1233832, "elev_in_ft": "11010", "map_name": "Humboldt Peak", "date_created": "08\/30\/1991", "date_edited": "" }, "geometry": { "type": "Point", "coordinates": [ -115.123383, 40.947145 ] } },
{ "type": "Feature", "properties": { "feature_name": "Natural Arch", "feature_class": "Arch", "state_alpha": "NV", "state_numeric": "32", "county_name": "White Pine", "county_numeric": "033", "prim_lat_dec": 39.0332754, "prim_long_dec": -114.9391832, "elev_in_ft": "8530", "map_name": "Ward Mountain", "date_created": "12\/12\/1980", "date_edited": "" }, "geometry": { "type": "Point", "coordinates": [ -114.939183, 39.033275 ] } },
{ "type": "Feature", "properties": { "feature_name": "Natural Arch", "feature_class": "Arch", "state_alpha": "NV", "state_numeric": "32", "county_name": "White Pine", "county_numeric": "033", "prim_lat_dec": 39.2282728, "prim_long_dec": -114.9080743, "elev_in_ft": "6886", "map_name": "Ely", "date_created": "12\/12\/1980", "date_edited": "" }, "geometry": { "type": "Point", "coordinates": [ -114.908074, 39.228273 ] } },
{ "type": "Feature", "properties": { "feature_name": "Natural Bridge", "feature_class": "Arch", "state_alpha": "NM", "state_numeric": "35", "county_name": "Lincoln", "county_numeric": "027", "prim_lat_dec": 34.095637, "prim_long_dec": -104.9791555, "elev_in_ft": "5085", "map_name": "Ramon SW", "date_created": "11\/13\/1980", "date_edited": "07\/19\/2010" }, "geometry": { "type": "Point", "coordinates": [ -104.979156, 34.095637 ] } },
{ "type": "Feature", "properties": { "feature_name": "Needles Eye", "feature_class": "Arch", "state_alpha": "NM", "state_numeric": "35", "county_name": "Luna", "county_numeric": "029", "prim_lat_dec": 32.1262025, "prim_long_dec": -107.613636, "elev_in_ft": "6870", "map_name": "Florida Gap", "date_created": "11\/13\/1980", "date_edited": "" }, "geometry": { "type": "Point", "coordinates": [ -107.613636, 32.126202 ] } },
{ "type": "Feature", "properties": { "feature_name": "Arch Rock", "feature_class": "Arch", "state_alpha": "NM", "state_numeric": "35", "county_name": "San Juan", "county_numeric": "045", "prim_lat_dec": 36.8908333, "prim_long_dec": -107.8491667, "elev_in_ft": "6322", "map_name": "Mount Nebo", "date_created": "06\/01\/1992", "date_edited": "07\/19\/2010" }, "geometry": { "type": "Point", "coordinates": [ -107.849167, 36.890833 ] } },
{ "type": "Feature", "properties": { "feature_name": "Soda Dam", "feature_class": "Arch", "state_alpha": "NM", "state_numeric": "35", "county_name": "Sandoval", "county_numeric": "043", "prim_lat_dec": 35.7914129, "prim_long_dec": -106.6864246, "elev_in_ft": "6332", "map_name": "Jemez Springs", "date_created": "11\/13\/1980", "date_edited": "08\/31\/2010" }, "geometry": { "type": "Point", "coordinates": [ -106.686425, 35.791413 ] } },
{ "type": "Feature", "properties": { "feature_name": "Teakettle Rock", "feature_class": "Arch", "state_alpha": "NM", "state_numeric": "35", "county_name": "Rio Arriba", "county_numeric": "039", "prim_lat_dec": 36.0475, "prim_long_dec": -106.6888889, "elev_in_ft": "8681", "map_name": "Jarosa", "date_created": "11\/13\/1980", "date_edited": "07\/19\/2010" }, "geometry": { "type": "Point", "coordinates": [ -106.688889, 36.0475 ] } },
{ "type": "Feature", "properties": { "feature_name": "Natural Bridge of New York", "feature_class": "Arch", "state_alpha": "NY", "state_numeric": "36", "county_name": "Jefferson", "county_numeric": "045", "prim_lat_dec": 44.0172791, "prim_long_dec": -76.0635384, "elev_in_ft": "269", "map_name": "Dexter", "date_created": "01\/01\/2000", "date_edited": "" }, "geometry": { "type": "Point", "coordinates": [ -76.063538, 44.017279 ] } },
{ "type": "Feature", "properties": { "feature_name": "Adirondack Natural Stone Bridge", "feature_class": "Arch", "state_alpha": "NY", "state_numeric": "36", "county_name": "Warren", "county_numeric": "113", "prim_lat_dec": 43.7470095, "prim_long_dec": -73.8531863, "elev_in_ft": "928", "map_name": "Chestertown", "date_created": "01\/01\/2000", "date_edited": "" }, "geometry": { "type": "Point", "coordinates": [ -73.853186, 43.747009 ] } },
{ "type": "Feature", "properties": { "feature_name": "Natural Bridge", "feature_class": "Arch", "state_alpha": "NC", "state_numeric": "37", "county_name": "Macon", "county_numeric": "113", "prim_lat_dec": 35.0298131, "prim_long_dec": -83.3326541, "elev_in_ft": "3261", "map_name": "Scaly Mountain", "date_created": "06\/17\/1980", "date_edited": "" }, "geometry": { "type": "Point", "coordinates": [ -83.332654, 35.029813 ] } },
{ "type": "Feature", "properties": { "feature_name": "Lime Arch Bridge", "feature_class": "Arch", "state_alpha": "OK", "state_numeric": "40", "county_name": "Pittsburg", "county_numeric": "121", "prim_lat_dec": 34.7514872, "prim_long_dec": -95.6994296, "elev_in_ft": "666", "map_name": "Hartshorne SW", "date_created": "12\/18\/1979", "date_edited": "02\/14\/2011" }, "geometry": { "type": "Point", "coordinates": [ -95.69943, 34.751487 ] } },
{ "type": "Feature", "properties": { "feature_name": "Needle Rock", "feature_class": "Arch", "state_alpha": "OR", "state_numeric": "41", "county_name": "Jackson", "county_numeric": "029", "prim_lat_dec": 42.6990157, "prim_long_dec": -122.6022602, "elev_in_ft": "2205", "map_name": "Cascade Gorge", "date_created": "11\/28\/1980", "date_edited": "" }, "geometry": { "type": "Point", "coordinates": [ -122.60226, 42.699016 ] } },
{ "type": "Feature", "properties": { "feature_name": "Phantom Natural Bridge", "feature_class": "Arch", "state_alpha": "OR", "state_numeric": "41", "county_name": "Marion", "county_numeric": "047", "prim_lat_dec": 44.7870664, "prim_long_dec": -122.2442446, "elev_in_ft": "4577", "map_name": "Battle Ax", "date_created": "11\/28\/1980", "date_edited": "" }, "geometry": { "type": "Point", "coordinates": [ -122.244245, 44.787066 ] } },
{ "type": "Feature", "properties": { "feature_name": "Natural Bridge", "feature_class": "Arch", "state_alpha": "OR", "state_numeric": "41", "county_name": "Jackson", "county_numeric": "029", "prim_lat_dec": 42.8895698, "prim_long_dec": -122.4653154, "elev_in_ft": "3205", "map_name": "Union Creek", "date_created": "04\/01\/1993", "date_edited": "" }, "geometry": { "type": "Point", "coordinates": [ -122.465315, 42.88957 ] } },
{ "type": "Feature", "properties": { "feature_name": "Cow Horn Arch", "feature_class": "Arch", "state_alpha": "OR", "state_numeric": "41", "county_name": "Douglas", "county_numeric": "019", "prim_lat_dec": 42.9498451, "prim_long_dec": -122.6283769, "elev_in_ft": "4265", "map_name": "Butler Butte", "date_created": "04\/01\/1993", "date_edited": "" }, "geometry": { "type": "Point", "coordinates": [ -122.628377, 42.949845 ] } },
{ "type": "Feature", "properties": { "feature_name": "Natural Bridges", "feature_class": "Arch", "state_alpha": "OR", "state_numeric": "41", "county_name": "Curry", "county_numeric": "015", "prim_lat_dec": 42.188723, "prim_long_dec": -124.3684368, "elev_in_ft": "0", "map_name": "Carpenterville", "date_created": "05\/01\/1989", "date_edited": "" }, "geometry": { "type": "Point", "coordinates": [ -124.368437, 42.188723 ] } },
{ "type": "Feature", "properties": { "feature_name": "Needle Eye", "feature_class": "Arch", "state_alpha": "SD", "state_numeric": "46", "county_name": "Custer", "county_numeric": "033", "prim_lat_dec": 43.8416525, "prim_long_dec": -103.5460265, "elev_in_ft": "6339", "map_name": "Custer", "date_created": "02\/13\/1980", "date_edited": "" }, "geometry": { "type": "Point", "coordinates": [ -103.546026, 43.841653 ] } },
{ "type": "Feature", "properties": { "feature_name": "Natural Bridge", "feature_class": "Arch", "state_alpha": "TN", "state_numeric": "47", "county_name": "Campbell", "county_numeric": "013", "prim_lat_dec": 36.4470236, "prim_long_dec": -84.0568684, "elev_in_ft": "2008", "map_name": "La Follette", "date_created": "05\/19\/1980", "date_edited": "" }, "geometry": { "type": "Point", "coordinates": [ -84.056868, 36.447024 ] } },
{ "type": "Feature", "properties": { "feature_name": "Big Oven", "feature_class": "Arch", "state_alpha": "TN", "state_numeric": "47", "county_name": "Cocke", "county_numeric": "029", "prim_lat_dec": 36.0503763, "prim_long_dec": -83.0807117, "elev_in_ft": "1201", "map_name": "Parrottsville", "date_created": "05\/19\/1980", "date_edited": "05\/27\/2009" }, "geometry": { "type": "Point", "coordinates": [ -83.080712, 36.050376 ] } },
{ "type": "Feature", "properties": { "feature_name": "Natural Bridge", "feature_class": "Arch", "state_alpha": "TX", "state_numeric": "48", "county_name": "Collingsworth", "county_numeric": "087", "prim_lat_dec": 35.1139411, "prim_long_dec": -100.0748326, "elev_in_ft": "2077", "map_name": "Little Wolf Creek", "date_created": "11\/30\/1979", "date_edited": "" }, "geometry": { "type": "Point", "coordinates": [ -100.074833, 35.113941 ] } },
{ "type": "Feature", "properties": { "feature_name": "Natural Arch", "feature_class": "Arch", "state_alpha": "AK", "state_numeric": "02", "county_name": "Valdez-Cordova (CA)", "county_numeric": "261", "prim_lat_dec": 60.505, "prim_long_dec": -142.4530556, "elev_in_ft": "3711", "map_name": "Bering Glacier C-4", "date_created": "01\/01\/2000", "date_edited": "" }, "geometry": { "type": "Point", "coordinates": [ -142.453056, 60.505 ] } },
{ "type": "Feature", "properties": { "feature_name": "Natural Bridge", "feature_class": "Arch", "state_alpha": "AK", "state_numeric": "02", "county_name": "Southeast Fairbanks (CA)", "county_numeric": "240", "prim_lat_dec": 65.0683333, "prim_long_dec": -141.1175, "elev_in_ft": "3179", "map_name": "Charley River A-1", "date_created": "01\/01\/2000", "date_edited": "" }, "geometry": { "type": "Point", "coordinates": [ -141.1175, 65.068333 ] } },
{ "type": "Feature", "properties": { "feature_name": "Ant Knolls", "feature_class": "Arch", "state_alpha": "UT", "state_numeric": "49", "county_name": "Garfield", "county_numeric": "017", "prim_lat_dec": 37.6986008, "prim_long_dec": -110.6912568, "elev_in_ft": "4557", "map_name": "Lost Spring", "date_created": "12\/31\/1979", "date_edited": "" }, "geometry": { "type": "Point", "coordinates": [ -110.691257, 37.698601 ] } },
{ "type": "Feature", "properties": { "feature_name": "Shaw Arch", "feature_class": "Arch", "state_alpha": "UT", "state_numeric": "49", "county_name": "San Juan", "county_numeric": "037", "prim_lat_dec": 37.3658305, "prim_long_dec": -110.1892945, "elev_in_ft": "4583", "map_name": "Slickhorn Canyon West", "date_created": "12\/31\/1979", "date_edited": "02\/04\/2009" }, "geometry": { "type": "Point", "coordinates": [ -110.189295, 37.365831 ] } },
{ "type": "Feature", "properties": { "feature_name": "Bowington Arch", "feature_class": "Arch", "state_alpha": "UT", "state_numeric": "49", "county_name": "Garfield", "county_numeric": "017", "prim_lat_dec": 37.7760996, "prim_long_dec": -111.3943346, "elev_in_ft": "5489", "map_name": "Calf Creek", "date_created": "12\/31\/1979", "date_edited": "" }, "geometry": { "type": "Point", "coordinates": [ -111.394335, 37.7761 ] } },
{ "type": "Feature", "properties": { "feature_name": "Cliff Arch", "feature_class": "Arch", "state_alpha": "UT", "state_numeric": "49", "county_name": "Kane", "county_numeric": "025", "prim_lat_dec": 37.4197127, "prim_long_dec": -111.0076562, "elev_in_ft": "3999", "map_name": "King Mesa", "date_created": "12\/31\/1979", "date_edited": "" }, "geometry": { "type": "Point", "coordinates": [ -111.007656, 37.419713 ] } },
{ "type": "Feature", "properties": { "feature_name": "Cove Arch", "feature_class": "Arch", "state_alpha": "UT", "state_numeric": "49", "county_name": "Grand", "county_numeric": "019", "prim_lat_dec": 38.6941473, "prim_long_dec": -109.5426186, "elev_in_ft": "5443", "map_name": "The Windows Section", "date_created": "12\/31\/1979", "date_edited": "" }, "geometry": { "type": "Point", "coordinates": [ -109.542619, 38.694147 ] } },
{ "type": "Feature", "properties": { "feature_name": "Coyote Natural Bridge", "feature_class": "Arch", "state_alpha": "UT", "state_numeric": "49", "county_name": "Kane", "county_numeric": "025", "prim_lat_dec": 37.4161015, "prim_long_dec": -111.0276567, "elev_in_ft": "4065", "map_name": "King Mesa", "date_created": "12\/31\/1979", "date_edited": "" }, "geometry": { "type": "Point", "coordinates": [ -111.027657, 37.416102 ] } },
{ "type": "Feature", "properties": { "feature_name": "Delicate Arch", "feature_class": "Arch", "state_alpha": "UT", "state_numeric": "49", "county_name": "Grand", "county_numeric": "019", "prim_lat_dec": 38.7427585, "prim_long_dec": -109.4940075, "elev_in_ft": "4606", "map_name": "Big Bend", "date_created": "12\/31\/1979", "date_edited": "" }, "geometry": { "type": "Point", "coordinates": [ -109.494008, 38.742759 ] } },
{ "type": "Feature", "properties": { "feature_name": "Double Arch", "feature_class": "Arch", "state_alpha": "UT", "state_numeric": "49", "county_name": "Grand", "county_numeric": "019", "prim_lat_dec": 38.6916474, "prim_long_dec": -109.5406741, "elev_in_ft": "5292", "map_name": "The Windows Section", "date_created": "12\/31\/1979", "date_edited": "" }, "geometry": { "type": "Point", "coordinates": [ -109.540674, 38.691647 ] } },
{ "type": "Feature", "properties": { "feature_name": "Double O Arch", "feature_class": "Arch", "state_alpha": "UT", "state_numeric": "49", "county_name": "Grand", "county_numeric": "019", "prim_lat_dec": 38.7994221, "prim_long_dec": -109.6201207, "elev_in_ft": "5522", "map_name": "Mollie Hogans", "date_created": "12\/31\/1979", "date_edited": "" }, "geometry": { "type": "Point", "coordinates": [ -109.620121, 38.799422 ] } },
{ "type": "Feature", "properties": { "feature_name": "Eye of Needle", "feature_class": "Arch", "state_alpha": "UT", "state_numeric": "49", "county_name": "Beaver", "county_numeric": "001", "prim_lat_dec": 38.5107912, "prim_long_dec": -113.5958055, "elev_in_ft": "6637", "map_name": "Wah Wah Summit", "date_created": "12\/31\/1979", "date_edited": "" }, "geometry": { "type": "Point", "coordinates": [ -113.595805, 38.510791 ] } },
{ "type": "Feature", "properties": { "feature_name": "Grosvenor Arch", "feature_class": "Arch", "state_alpha": "UT", "state_numeric": "49", "county_name": "Kane", "county_numeric": "025", "prim_lat_dec": 37.4566526, "prim_long_dec": -111.8315671, "elev_in_ft": "6427", "map_name": "Butler Valley", "date_created": "12\/31\/1979", "date_edited": "" }, "geometry": { "type": "Point", "coordinates": [ -111.831567, 37.456653 ] } },
{ "type": "Feature", "properties": { "feature_name": "Hawkeye Natural Bridge", "feature_class": "Arch", "state_alpha": "UT", "state_numeric": "49", "county_name": "San Juan", "county_numeric": "037", "prim_lat_dec": 37.1127733, "prim_long_dec": -110.7462494, "elev_in_ft": "4701", "map_name": "Deep Canyon South", "date_created": "12\/31\/1979", "date_edited": "" }, "geometry": { "type": "Point", "coordinates": [ -110.746249, 37.112773 ] } },
{ "type": "Feature", "properties": { "feature_name": "Hole in the Rock", "feature_class": "Arch", "state_alpha": "UT", "state_numeric": "49", "county_name": "Summit", "county_numeric": "043", "prim_lat_dec": 40.9424492, "prim_long_dec": -110.1595985, "elev_in_ft": "8983", "map_name": "Hole In The Rock", "date_created": "12\/31\/1979", "date_edited": "" }, "geometry": { "type": "Point", "coordinates": [ -110.159599, 40.942449 ] } },
{ "type": "Feature", "properties": { "feature_name": "Hole-in-the-Rock", "feature_class": "Arch", "state_alpha": "UT", "state_numeric": "49", "county_name": "San Juan", "county_numeric": "037", "prim_lat_dec": 38.3905406, "prim_long_dec": -109.454004, "elev_in_ft": "5082", "map_name": "Kane Springs", "date_created": "12\/31\/1979", "date_edited": "" }, "geometry": { "type": "Point", "coordinates": [ -109.454004, 38.390541 ] } },
{ "type": "Feature", "properties": { "feature_name": "Jacob Hamblin Arch", "feature_class": "Arch", "state_alpha": "UT", "state_numeric": "49", "county_name": "Kane", "county_numeric": "025", "prim_lat_dec": 37.4188792, "prim_long_dec": -111.0432127, "elev_in_ft": "4209", "map_name": "King Mesa", "date_created": "12\/31\/1979", "date_edited": "" }, "geometry": { "type": "Point", "coordinates": [ -111.043213, 37.418879 ] } },
{ "type": "Feature", "properties": { "feature_name": "Kolob Arch", "feature_class": "Arch", "state_alpha": "UT", "state_numeric": "49", "county_name": "Washington", "county_numeric": "053", "prim_lat_dec": 37.4235911, "prim_long_dec": -113.1577256, "elev_in_ft": "6083", "map_name": "Kolob Arch", "date_created": "12\/31\/1979", "date_edited": "" }, "geometry": { "type": "Point", "coordinates": [ -113.157726, 37.423591 ] } },
{ "type": "Feature", "properties": { "feature_name": "Landscape Arch", "feature_class": "Arch", "state_alpha": "UT", "state_numeric": "49", "county_name": "Grand", "county_numeric": "019", "prim_lat_dec": 38.7905337, "prim_long_dec": -109.6067871, "elev_in_ft": "5308", "map_name": "Mollie Hogans", "date_created": "12\/31\/1979", "date_edited": "" }, "geometry": { "type": "Point", "coordinates": [ -109.606787, 38.790534 ] } },
{ "type": "Feature", "properties": { "feature_name": "Corona Arch", "feature_class": "Arch", "state_alpha": "UT", "state_numeric": "49", "county_name": "Grand", "county_numeric": "019", "prim_lat_dec": 38.579943, "prim_long_dec": -109.619887, "elev_in_ft": "4383", "map_name": "Moab", "date_created": "12\/31\/1979", "date_edited": "02\/22\/2009" }, "geometry": { "type": "Point", "coordinates": [ -109.619887, 38.579943 ] } },
{ "type": "Feature", "properties": { "feature_name": "Looking Glass Rock", "feature_class": "Arch", "state_alpha": "UT", "state_numeric": "49", "county_name": "San Juan", "county_numeric": "037", "prim_lat_dec": 38.2752644, "prim_long_dec": -109.4051136, "elev_in_ft": "6237", "map_name": "La Sal Junction", "date_created": "12\/31\/1979", "date_edited": "" }, "geometry": { "type": "Point", "coordinates": [ -109.405114, 38.275264 ] } },
{ "type": "Feature", "properties": { "feature_name": "Navajo Arch", "feature_class": "Arch", "state_alpha": "UT", "state_numeric": "49", "county_name": "Grand", "county_numeric": "019", "prim_lat_dec": 38.7919224, "prim_long_dec": -109.6090094, "elev_in_ft": "5482", "map_name": "Mollie Hogans", "date_created": "12\/31\/1979", "date_edited": "" }, "geometry": { "type": "Point", "coordinates": [ -109.609009, 38.791922 ] } },
{ "type": "Feature", "properties": { "feature_name": "Nevills Arch", "feature_class": "Arch", "state_alpha": "UT", "state_numeric": "49", "county_name": "San Juan", "county_numeric": "037", "prim_lat_dec": 37.4519437, "prim_long_dec": -109.7729056, "elev_in_ft": "5518", "map_name": "Snow Flat Spring Cave", "date_created": "12\/31\/1979", "date_edited": "" }, "geometry": { "type": "Point", "coordinates": [ -109.772906, 37.451944 ] } },
{ "type": "Feature", "properties": { "feature_name": "South Windows", "feature_class": "Arch", "state_alpha": "UT", "state_numeric": "49", "county_name": "Grand", "county_numeric": "019", "prim_lat_dec": 38.6849715, "prim_long_dec": -109.5322131, "elev_in_ft": "5335", "map_name": "The Windows Section", "date_created": "12\/31\/1979", "date_edited": "11\/23\/2016" }, "geometry": { "type": "Point", "coordinates": [ -109.532213, 38.684972 ] } },
{ "type": "Feature", "properties": { "feature_name": "Partition Arch", "feature_class": "Arch", "state_alpha": "UT", "state_numeric": "49", "county_name": "Grand", "county_numeric": "019", "prim_lat_dec": 38.7919224, "prim_long_dec": -109.6076205, "elev_in_ft": "5338", "map_name": "Mollie Hogans", "date_created": "12\/31\/1979", "date_edited": "" }, "geometry": { "type": "Point", "coordinates": [ -109.60762, 38.791922 ] } },
{ "type": "Feature", "properties": { "feature_name": "Phipps Arch", "feature_class": "Arch", "state_alpha": "UT", "state_numeric": "49", "county_name": "Garfield", "county_numeric": "017", "prim_lat_dec": 37.7563776, "prim_long_dec": -111.410168, "elev_in_ft": "5571", "map_name": "Calf Creek", "date_created": "12\/31\/1979", "date_edited": "" }, "geometry": { "type": "Point", "coordinates": [ -111.410168, 37.756378 ] } },
{ "type": "Feature", "properties": { "feature_name": "Pine Tree Arch", "feature_class": "Arch", "state_alpha": "UT", "state_numeric": "49", "county_name": "Grand", "county_numeric": "019", "prim_lat_dec": 38.7874783, "prim_long_dec": -109.5984537, "elev_in_ft": "5203", "map_name": "Mollie Hogans", "date_created": "12\/31\/1979", "date_edited": "" }, "geometry": { "type": "Point", "coordinates": [ -109.598454, 38.787478 ] } },
{ "type": "Feature", "properties": { "feature_name": "Pinto Arch", "feature_class": "Arch", "state_alpha": "UT", "state_numeric": "49", "county_name": "Grand", "county_numeric": "019", "prim_lat_dec": 38.5824817, "prim_long_dec": -109.6267846, "elev_in_ft": "4567", "map_name": "Gold Bar Canyon", "date_created": "12\/31\/1979", "date_edited": "" }, "geometry": { "type": "Point", "coordinates": [ -109.626785, 38.582482 ] } },
{ "type": "Feature", "properties": { "feature_name": "Pritchett Natural Bridge", "feature_class": "Arch", "state_alpha": "UT", "state_numeric": "49", "county_name": "Grand", "county_numeric": "019", "prim_lat_dec": 38.5060943, "prim_long_dec": -109.5592831, "elev_in_ft": "4836", "map_name": "Moab", "date_created": "12\/31\/1979", "date_edited": "" }, "geometry": { "type": "Point", "coordinates": [ -109.559283, 38.506094 ] } },
{ "type": "Feature", "properties": { "feature_name": "Ribbon Arch", "feature_class": "Arch", "state_alpha": "UT", "state_numeric": "49", "county_name": "Grand", "county_numeric": "019", "prim_lat_dec": 38.6947029, "prim_long_dec": -109.539563, "elev_in_ft": "5574", "map_name": "The Windows Section", "date_created": "12\/31\/1979", "date_edited": "" }, "geometry": { "type": "Point", "coordinates": [ -109.539563, 38.694703 ] } },
{ "type": "Feature", "properties": { "feature_name": "Sipapu Bridge", "feature_class": "Arch", "state_alpha": "UT", "state_numeric": "49", "county_name": "San Juan", "county_numeric": "037", "prim_lat_dec": 37.6249934, "prim_long_dec": -110.0173552, "elev_in_ft": "6027", "map_name": "Moss Back Butte", "date_created": "12\/31\/1979", "date_edited": "08\/25\/2011" }, "geometry": { "type": "Point", "coordinates": [ -110.017355, 37.624993 ] } },
{ "type": "Feature", "properties": { "feature_name": "Skyline Arch", "feature_class": "Arch", "state_alpha": "UT", "state_numeric": "49", "county_name": "Grand", "county_numeric": "019", "prim_lat_dec": 38.7744231, "prim_long_dec": -109.5901201, "elev_in_ft": "5243", "map_name": "Mollie Hogans", "date_created": "12\/31\/1979", "date_edited": "" }, "geometry": { "type": "Point", "coordinates": [ -109.59012, 38.774423 ] } },
{ "type": "Feature", "properties": { "feature_name": "Sunset Natural Arch", "feature_class": "Arch", "state_alpha": "UT", "state_numeric": "49", "county_name": "Kane", "county_numeric": "025", "prim_lat_dec": 37.3758238, "prim_long_dec": -111.0484901, "elev_in_ft": "4564", "map_name": "King Mesa", "date_created": "12\/31\/1979", "date_edited": "" }, "geometry": { "type": "Point", "coordinates": [ -111.04849, 37.375824 ] } },
{ "type": "Feature", "properties": { "feature_name": "The Alcove", "feature_class": "Arch", "state_alpha": "UT", "state_numeric": "49", "county_name": "Carbon", "county_numeric": "007", "prim_lat_dec": 39.7507976, "prim_long_dec": -110.2193216, "elev_in_ft": "6158", "map_name": "Cowboy Bench", "date_created": "12\/31\/1979", "date_edited": "" }, "geometry": { "type": "Point", "coordinates": [ -110.219322, 39.750798 ] } },
{ "type": "Feature", "properties": { "feature_name": "The Hondu", "feature_class": "Arch", "state_alpha": "UT", "state_numeric": "49", "county_name": "Emery", "county_numeric": "015", "prim_lat_dec": 38.6724762, "prim_long_dec": -111.0159978, "elev_in_ft": "6660", "map_name": "Ireland Mesa", "date_created": "12\/31\/1979", "date_edited": "" }, "geometry": { "type": "Point", "coordinates": [ -111.015998, 38.672476 ] } },
{ "type": "Feature", "properties": { "feature_name": "The Jug Handle", "feature_class": "Arch", "state_alpha": "UT", "state_numeric": "49", "county_name": "Grand", "county_numeric": "019", "prim_lat_dec": 38.5460934, "prim_long_dec": -109.6481732, "elev_in_ft": "3966", "map_name": "Gold Bar Canyon", "date_created": "12\/31\/1979", "date_edited": "" }, "geometry": { "type": "Point", "coordinates": [ -109.648173, 38.546093 ] } },
{ "type": "Feature", "properties": { "feature_name": "The Mummy", "feature_class": "Arch", "state_alpha": "UT", "state_numeric": "49", "county_name": "Carbon", "county_numeric": "007", "prim_lat_dec": 39.7791308, "prim_long_dec": -110.1726535, "elev_in_ft": "5784", "map_name": "Cowboy Bench", "date_created": "12\/31\/1979", "date_edited": "" }, "geometry": { "type": "Point", "coordinates": [ -110.172653, 39.779131 ] } },
{ "type": "Feature", "properties": { "feature_name": "The Shoe", "feature_class": "Arch", "state_alpha": "UT", "state_numeric": "49", "county_name": "San Juan", "county_numeric": "037", "prim_lat_dec": 37.5861055, "prim_long_dec": -110.0170768, "elev_in_ft": "6089", "map_name": "Moss Back Butte", "date_created": "12\/31\/1979", "date_edited": "" }, "geometry": { "type": "Point", "coordinates": [ -110.017077, 37.586106 ] } },
{ "type": "Feature", "properties": { "feature_name": "Tower Arch", "feature_class": "Arch", "state_alpha": "UT", "state_numeric": "49", "county_name": "Grand", "county_numeric": "019", "prim_lat_dec": 38.7899768, "prim_long_dec": -109.6870659, "elev_in_ft": "5312", "map_name": "Klondike Bluffs", "date_created": "12\/31\/1979", "date_edited": "" }, "geometry": { "type": "Point", "coordinates": [ -109.687066, 38.789977 ] } },
{ "type": "Feature", "properties": { "feature_name": "Tunnel Arch", "feature_class": "Arch", "state_alpha": "UT", "state_numeric": "49", "county_name": "Grand", "county_numeric": "019", "prim_lat_dec": 38.7849784, "prim_long_dec": -109.596787, "elev_in_ft": "5266", "map_name": "Mollie Hogans", "date_created": "12\/31\/1979", "date_edited": "" }, "geometry": { "type": "Point", "coordinates": [ -109.596787, 38.784978 ] } },
{ "type": "Feature", "properties": { "feature_name": "Turret Arch", "feature_class": "Arch", "state_alpha": "UT", "state_numeric": "49", "county_name": "Grand", "county_numeric": "019", "prim_lat_dec": 38.6843594, "prim_long_dec": -109.53496, "elev_in_ft": "5325", "map_name": "The Windows Section", "date_created": "12\/31\/1979", "date_edited": "02\/06\/2015" }, "geometry": { "type": "Point", "coordinates": [ -109.53496, 38.684359 ] } },
{ "type": "Feature", "properties": { "feature_name": "Wall Arch (historical)", "feature_class": "Arch", "state_alpha": "UT", "state_numeric": "49", "county_name": "Grand", "county_numeric": "019", "prim_lat_dec": 38.792478, "prim_long_dec": -109.6067872, "elev_in_ft": "5387", "map_name": "Mollie Hogans", "date_created": "12\/31\/1979", "date_edited": "08\/10\/2008" }, "geometry": { "type": "Point", "coordinates": [ -109.606787, 38.792478 ] } },
{ "type": "Feature", "properties": { "feature_name": "Musselman Arch", "feature_class": "Arch", "state_alpha": "UT", "state_numeric": "49", "county_name": "San Juan", "county_numeric": "037", "prim_lat_dec": 38.4358173, "prim_long_dec": -109.7695633, "elev_in_ft": "4482", "map_name": "Musselman Arch", "date_created": "02\/25\/1989", "date_edited": "" }, "geometry": { "type": "Point", "coordinates": [ -109.769563, 38.435817 ] } },
{ "type": "Feature", "properties": { "feature_name": "Washer Woman", "feature_class": "Arch", "state_alpha": "UT", "state_numeric": "49", "county_name": "San Juan", "county_numeric": "037", "prim_lat_dec": 38.3899843, "prim_long_dec": -109.8381767, "elev_in_ft": "5620", "map_name": "Musselman Arch", "date_created": "02\/25\/1989", "date_edited": "" }, "geometry": { "type": "Point", "coordinates": [ -109.838177, 38.389984 ] } },
{ "type": "Feature", "properties": { "feature_name": "Mesa Arch", "feature_class": "Arch", "state_alpha": "UT", "state_numeric": "49", "county_name": "San Juan", "county_numeric": "037", "prim_lat_dec": 38.3878595, "prim_long_dec": -109.8636644, "elev_in_ft": "6099", "map_name": "Musselman Arch", "date_created": "02\/25\/1989", "date_edited": "02\/06\/2015" }, "geometry": { "type": "Point", "coordinates": [ -109.863664, 38.387859 ] } },
{ "type": "Feature", "properties": { "feature_name": "Natural Arch", "feature_class": "Arch", "state_alpha": "UT", "state_numeric": "49", "county_name": "Wayne", "county_numeric": "055", "prim_lat_dec": 38.2616512, "prim_long_dec": -110.1604097, "elev_in_ft": "6191", "map_name": "Head Spur", "date_created": "02\/25\/1989", "date_edited": "" }, "geometry": { "type": "Point", "coordinates": [ -110.16041, 38.261651 ] } },
{ "type": "Feature", "properties": { "feature_name": "Cave Arch", "feature_class": "Arch", "state_alpha": "UT", "state_numeric": "49", "county_name": "Garfield", "county_numeric": "017", "prim_lat_dec": 38.1522077, "prim_long_dec": -110.0495747, "elev_in_ft": "5305", "map_name": "Elaterite Basin", "date_created": "02\/25\/1989", "date_edited": "" }, "geometry": { "type": "Point", "coordinates": [ -110.049575, 38.152208 ] } },
{ "type": "Feature", "properties": { "feature_name": "Whitmore Arch", "feature_class": "Arch", "state_alpha": "UT", "state_numeric": "49", "county_name": "Garfield", "county_numeric": "017", "prim_lat_dec": 38.1383189, "prim_long_dec": -110.0451303, "elev_in_ft": "5213", "map_name": "Elaterite Basin", "date_created": "02\/25\/1989", "date_edited": "02\/04\/2009" }, "geometry": { "type": "Point", "coordinates": [ -110.04513, 38.138319 ] } },
{ "type": "Feature", "properties": { "feature_name": "Beehive Arch", "feature_class": "Arch", "state_alpha": "UT", "state_numeric": "49", "county_name": "Wayne", "county_numeric": "055", "prim_lat_dec": 38.1658192, "prim_long_dec": -109.9454048, "elev_in_ft": "5164", "map_name": "Spanish Bottom", "date_created": "02\/25\/1989", "date_edited": "" }, "geometry": { "type": "Point", "coordinates": [ -109.945405, 38.165819 ] } },
{ "type": "Feature", "properties": { "feature_name": "Wooden Shoe", "feature_class": "Arch", "state_alpha": "UT", "state_numeric": "49", "county_name": "San Juan", "county_numeric": "037", "prim_lat_dec": 38.1399876, "prim_long_dec": -109.7765115, "elev_in_ft": "5262", "map_name": "The Loop", "date_created": "02\/25\/1989", "date_edited": "02\/04\/2009" }, "geometry": { "type": "Point", "coordinates": [ -109.776511, 38.139988 ] } },
{ "type": "Feature", "properties": { "feature_name": "Angel Arch", "feature_class": "Arch", "state_alpha": "UT", "state_numeric": "49", "county_name": "San Juan", "county_numeric": "037", "prim_lat_dec": 38.0519325, "prim_long_dec": -109.7551235, "elev_in_ft": "5692", "map_name": "Druid Arch", "date_created": "02\/25\/1989", "date_edited": "" }, "geometry": { "type": "Point", "coordinates": [ -109.755123, 38.051932 ] } },
{ "type": "Feature", "properties": { "feature_name": "Aardvark Arch", "feature_class": "Arch", "state_alpha": "UT", "state_numeric": "49", "county_name": "Box Elder", "county_numeric": "003", "prim_lat_dec": 41.1927088, "prim_long_dec": -112.8346996, "elev_in_ft": "4334", "map_name": "Lakeside", "date_created": "02\/25\/1989", "date_edited": "" }, "geometry": { "type": "Point", "coordinates": [ -112.8347, 41.192709 ] } },
{ "type": "Feature", "properties": { "feature_name": "Aladdins Lamp Arch", "feature_class": "Arch", "state_alpha": "UT", "state_numeric": "49", "county_name": "Grand", "county_numeric": "019", "prim_lat_dec": 38.8125, "prim_long_dec": -109.6283333, "elev_in_ft": "5233", "map_name": "Klondike Bluffs", "date_created": "02\/25\/1989", "date_edited": "07\/30\/2009" }, "geometry": { "type": "Point", "coordinates": [ -109.628333, 38.8125 ] } },
{ "type": "Feature", "properties": { "feature_name": "Anniversary Arch", "feature_class": "Arch", "state_alpha": "UT", "state_numeric": "49", "county_name": "Grand", "county_numeric": "019", "prim_lat_dec": 38.7833104, "prim_long_dec": -109.6773435, "elev_in_ft": "5010", "map_name": "Klondike Bluffs", "date_created": "02\/25\/1989", "date_edited": "" }, "geometry": { "type": "Point", "coordinates": [ -109.677344, 38.78331 ] } },
{ "type": "Feature", "properties": { "feature_name": "Arch de Triumphe", "feature_class": "Arch", "state_alpha": "UT", "state_numeric": "49", "county_name": "Grand", "county_numeric": "019", "prim_lat_dec": 38.7813889, "prim_long_dec": -109.5852778, "elev_in_ft": "5167", "map_name": "Mollie Hogans", "date_created": "02\/25\/1989", "date_edited": "07\/30\/2009" }, "geometry": { "type": "Point", "coordinates": [ -109.585278, 38.781389 ] } },
{ "type": "Feature", "properties": { "feature_name": "Bat Guano Arch", "feature_class": "Arch", "state_alpha": "UT", "state_numeric": "49", "county_name": "Grand", "county_numeric": "019", "prim_lat_dec": 38.7913889, "prim_long_dec": -109.6102778, "elev_in_ft": "5417", "map_name": "Mollie Hogans", "date_created": "02\/25\/1989", "date_edited": "07\/30\/2009" }, "geometry": { "type": "Point", "coordinates": [ -109.610278, 38.791389 ] } },
{ "type": "Feature", "properties": { "feature_name": "Beckwith Arch", "feature_class": "Arch", "state_alpha": "UT", "state_numeric": "49", "county_name": "Grand", "county_numeric": "019", "prim_lat_dec": 38.7161111, "prim_long_dec": -109.6069444, "elev_in_ft": "5039", "map_name": "The Windows Section", "date_created": "02\/25\/1989", "date_edited": "07\/30\/2009" }, "geometry": { "type": "Point", "coordinates": [ -109.606944, 38.716111 ] } },
{ "type": "Feature", "properties": { "feature_name": "Bench Arch", "feature_class": "Arch", "state_alpha": "UT", "state_numeric": "49", "county_name": "Grand", "county_numeric": "019", "prim_lat_dec": 38.7424798, "prim_long_dec": -109.5570638, "elev_in_ft": "4849", "map_name": "The Windows Section", "date_created": "02\/25\/1989", "date_edited": "" }, "geometry": { "type": "Point", "coordinates": [ -109.557064, 38.74248 ] } },
{ "type": "Feature", "properties": { "feature_name": "Black Cave Arch", "feature_class": "Arch", "state_alpha": "UT", "state_numeric": "49", "county_name": "Grand", "county_numeric": "019", "prim_lat_dec": 38.8008111, "prim_long_dec": -109.6101206, "elev_in_ft": "5089", "map_name": "Mollie Hogans", "date_created": "02\/25\/1989", "date_edited": "" }, "geometry": { "type": "Point", "coordinates": [ -109.610121, 38.800811 ] } },
{ "type": "Feature", "properties": { "feature_name": "Box Arch", "feature_class": "Arch", "state_alpha": "UT", "state_numeric": "49", "county_name": "Grand", "county_numeric": "019", "prim_lat_dec": 38.7527778, "prim_long_dec": -109.5725, "elev_in_ft": "4924", "map_name": "Mollie Hogans", "date_created": "02\/25\/1989", "date_edited": "09\/17\/2009" }, "geometry": { "type": "Point", "coordinates": [ -109.5725, 38.752778 ] } },
{ "type": "Feature", "properties": { "feature_name": "Brimhall Bridge", "feature_class": "Arch", "state_alpha": "UT", "state_numeric": "49", "county_name": "Garfield", "county_numeric": "017", "prim_lat_dec": 37.7152682, "prim_long_dec": -110.9490419, "elev_in_ft": "4718", "map_name": "Deer Point", "date_created": "02\/25\/1989", "date_edited": "" }, "geometry": { "type": "Point", "coordinates": [ -110.949042, 37.715268 ] } },
{ "type": "Feature", "properties": { "feature_name": "Broken Arch", "feature_class": "Arch", "state_alpha": "UT", "state_numeric": "49", "county_name": "Grand", "county_numeric": "019", "prim_lat_dec": 38.767479, "prim_long_dec": -109.5812311, "elev_in_ft": "5171", "map_name": "Mollie Hogans", "date_created": "02\/25\/1989", "date_edited": "" }, "geometry": { "type": "Point", "coordinates": [ -109.581231, 38.767479 ] } },
{ "type": "Feature", "properties": { "feature_name": "Cassidys Arch", "feature_class": "Arch", "state_alpha": "UT", "state_numeric": "49", "county_name": "Wayne", "county_numeric": "055", "prim_lat_dec": 38.2619245, "prim_long_dec": -111.2254467, "elev_in_ft": "5912", "map_name": "Fruita", "date_created": "02\/25\/1989", "date_edited": "" }, "geometry": { "type": "Point", "coordinates": [ -111.225447, 38.261924 ] } },
{ "type": "Feature", "properties": { "feature_name": "Cliff Arch", "feature_class": "Arch", "state_alpha": "UT", "state_numeric": "49", "county_name": "Grand", "county_numeric": "019", "prim_lat_dec": 38.7474797, "prim_long_dec": -109.560675, "elev_in_ft": "5003", "map_name": "The Windows Section", "date_created": "02\/25\/1989", "date_edited": "12\/08\/2008" }, "geometry": { "type": "Point", "coordinates": [ -109.560675, 38.74748 ] } },
{ "type": "Feature", "properties": { "feature_name": "Cloister Arch", "feature_class": "Arch", "state_alpha": "UT", "state_numeric": "49", "county_name": "Grand", "county_numeric": "019", "prim_lat_dec": 38.7438889, "prim_long_dec": -109.56, "elev_in_ft": "4787", "map_name": "The Windows Section", "date_created": "02\/25\/1989", "date_edited": "08\/05\/2009" }, "geometry": { "type": "Point", "coordinates": [ -109.56, 38.743889 ] } },
{ "type": "Feature", "properties": { "feature_name": "Coke Oven Arch", "feature_class": "Arch", "state_alpha": "UT", "state_numeric": "49", "county_name": "Grand", "county_numeric": "019", "prim_lat_dec": 38.79, "prim_long_dec": -109.6075, "elev_in_ft": "5482", "map_name": "Mollie Hogans", "date_created": "02\/25\/1989", "date_edited": "08\/05\/2009" }, "geometry": { "type": "Point", "coordinates": [ -109.6075, 38.79 ] } },
{ "type": "Feature", "properties": { "feature_name": "Crystal Arch", "feature_class": "Arch", "state_alpha": "UT", "state_numeric": "49", "county_name": "Grand", "county_numeric": "019", "prim_lat_dec": 38.7947003, "prim_long_dec": -109.6017871, "elev_in_ft": "5203", "map_name": "Mollie Hogans", "date_created": "02\/25\/1989", "date_edited": "" }, "geometry": { "type": "Point", "coordinates": [ -109.601787, 38.7947 ] } },
{ "type": "Feature", "properties": { "feature_name": "Dutchman Arch", "feature_class": "Arch", "state_alpha": "UT", "state_numeric": "49", "county_name": "Emery", "county_numeric": "015", "prim_lat_dec": 38.8724728, "prim_long_dec": -110.7876639, "elev_in_ft": "7005", "map_name": "San Rafael Knob", "date_created": "02\/25\/1989", "date_edited": "" }, "geometry": { "type": "Point", "coordinates": [ -110.787664, 38.872473 ] } },
{ "type": "Feature", "properties": { "feature_name": "Elephant Arch", "feature_class": "Arch", "state_alpha": "UT", "state_numeric": "49", "county_name": "Grand", "county_numeric": "019", "prim_lat_dec": 38.6891474, "prim_long_dec": -109.5409519, "elev_in_ft": "5226", "map_name": "The Windows Section", "date_created": "02\/25\/1989", "date_edited": "" }, "geometry": { "type": "Point", "coordinates": [ -109.540952, 38.689147 ] } },
{ "type": "Feature", "properties": { "feature_name": "Eye of the Whale Arch", "feature_class": "Arch", "state_alpha": "UT", "state_numeric": "49", "county_name": "Grand", "county_numeric": "019", "prim_lat_dec": 38.7130352, "prim_long_dec": -109.6037306, "elev_in_ft": "4984", "map_name": "The Windows Section", "date_created": "02\/25\/1989", "date_edited": "" }, "geometry": { "type": "Point", "coordinates": [ -109.603731, 38.713035 ] } },
{ "type": "Feature", "properties": { "feature_name": "Flatiron Arch", "feature_class": "Arch", "state_alpha": "UT", "state_numeric": "49", "county_name": "Grand", "county_numeric": "019", "prim_lat_dec": 38.6666473, "prim_long_dec": -109.5840075, "elev_in_ft": "4406", "map_name": "The Windows Section", "date_created": "02\/25\/1989", "date_edited": "" }, "geometry": { "type": "Point", "coordinates": [ -109.584007, 38.666647 ] } },
{ "type": "Feature", "properties": { "feature_name": "Football Arch", "feature_class": "Arch", "state_alpha": "UT", "state_numeric": "49", "county_name": "Grand", "county_numeric": "019", "prim_lat_dec": 38.6999801, "prim_long_dec": -109.584008, "elev_in_ft": "4934", "map_name": "The Windows Section", "date_created": "02\/25\/1989", "date_edited": "" }, "geometry": { "type": "Point", "coordinates": [ -109.584008, 38.69998 ] } },
{ "type": "Feature", "properties": { "feature_name": "Gold Bar Arch", "feature_class": "Arch", "state_alpha": "UT", "state_numeric": "49", "county_name": "Grand", "county_numeric": "019", "prim_lat_dec": 38.599148, "prim_long_dec": -109.6395628, "elev_in_ft": "5000", "map_name": "Gold Bar Canyon", "date_created": "02\/25\/1989", "date_edited": "" }, "geometry": { "type": "Point", "coordinates": [ -109.639563, 38.599148 ] } },
{ "type": "Feature", "properties": { "feature_name": "Gothic Arch", "feature_class": "Arch", "state_alpha": "UT", "state_numeric": "49", "county_name": "Grand", "county_numeric": "019", "prim_lat_dec": 38.8333109, "prim_long_dec": -109.5840096, "elev_in_ft": "4567", "map_name": "Mollie Hogans", "date_created": "02\/25\/1989", "date_edited": "" }, "geometry": { "type": "Point", "coordinates": [ -109.58401, 38.833311 ] } },
{ "type": "Feature", "properties": { "feature_name": "Gothic Arch", "feature_class": "Arch", "state_alpha": "UT", "state_numeric": "49", "county_name": "San Juan", "county_numeric": "037", "prim_lat_dec": 38.0883214, "prim_long_dec": -109.7362338, "elev_in_ft": "5394", "map_name": "South Six-shooter Peak", "date_created": "02\/25\/1989", "date_edited": "" }, "geometry": { "type": "Point", "coordinates": [ -109.736234, 38.088321 ] } },
{ "type": "Feature", "properties": { "feature_name": "Gregory Natural Bridge (historical)", "feature_class": "Arch", "state_alpha": "UT", "state_numeric": "49", "county_name": "Kane", "county_numeric": "025", "prim_lat_dec": 37.3297137, "prim_long_dec": -110.9384856, "elev_in_ft": "3704", "map_name": "Davis Gulch", "date_created": "02\/25\/1989", "date_edited": "" }, "geometry": { "type": "Point", "coordinates": [ -110.938486, 37.329714 ] } },
{ "type": "Feature", "properties": { "feature_name": "Hole-in-the-Fin Arch", "feature_class": "Arch", "state_alpha": "UT", "state_numeric": "49", "county_name": "Grand", "county_numeric": "019", "prim_lat_dec": 38.7461111, "prim_long_dec": -109.5636111, "elev_in_ft": "4924", "map_name": "The Windows Section", "date_created": "02\/25\/1989", "date_edited": "08\/06\/2009" }, "geometry": { "type": "Point", "coordinates": [ -109.563611, 38.746111 ] } },
{ "type": "Feature", "properties": { "feature_name": "Hole-in-the-Wall", "feature_class": "Arch", "state_alpha": "UT", "state_numeric": "49", "county_name": "Grand", "county_numeric": "019", "prim_lat_dec": 38.6405364, "prim_long_dec": -109.6076185, "elev_in_ft": "4176", "map_name": "The Windows Section", "date_created": "02\/25\/1989", "date_edited": "" }, "geometry": { "type": "Point", "coordinates": [ -109.607619, 38.640536 ] } },
{ "type": "Feature", "properties": { "feature_name": "Indian Head Arch", "feature_class": "Arch", "state_alpha": "UT", "state_numeric": "49", "county_name": "Grand", "county_numeric": "019", "prim_lat_dec": 38.8133333, "prim_long_dec": -109.6325, "elev_in_ft": "5292", "map_name": "Klondike Bluffs", "date_created": "02\/25\/1989", "date_edited": "08\/05\/2009" }, "geometry": { "type": "Point", "coordinates": [ -109.6325, 38.813333 ] } },
{ "type": "Feature", "properties": { "feature_name": "Little Bridge", "feature_class": "Arch", "state_alpha": "UT", "state_numeric": "49", "county_name": "Grand", "county_numeric": "019", "prim_lat_dec": 38.749424, "prim_long_dec": -109.5617861, "elev_in_ft": "5049", "map_name": "The Windows Section", "date_created": "02\/25\/1989", "date_edited": "" }, "geometry": { "type": "Point", "coordinates": [ -109.561786, 38.749424 ] } },
{ "type": "Feature", "properties": { "feature_name": "Lopez Arch", "feature_class": "Arch", "state_alpha": "UT", "state_numeric": "49", "county_name": "San Juan", "county_numeric": "037", "prim_lat_dec": 38.2413762, "prim_long_dec": -109.3742796, "elev_in_ft": "5915", "map_name": "Sandstone Draw", "date_created": "02\/25\/1989", "date_edited": "" }, "geometry": { "type": "Point", "coordinates": [ -109.37428, 38.241376 ] } },
{ "type": "Feature", "properties": { "feature_name": "Metate Arch", "feature_class": "Arch", "state_alpha": "UT", "state_numeric": "49", "county_name": "Garfield", "county_numeric": "017", "prim_lat_dec": 37.5866548, "prim_long_dec": -111.4140556, "elev_in_ft": "5308", "map_name": "Seep Flat", "date_created": "02\/25\/1989", "date_edited": "" }, "geometry": { "type": "Point", "coordinates": [ -111.414056, 37.586655 ] } },
{ "type": "Feature", "properties": { "feature_name": "Morning Glory Arch", "feature_class": "Arch", "state_alpha": "UT", "state_numeric": "49", "county_name": "Grand", "county_numeric": "019", "prim_lat_dec": 38.5935933, "prim_long_dec": -109.5087283, "elev_in_ft": "4314", "map_name": "Moab", "date_created": "02\/25\/1989", "date_edited": "" }, "geometry": { "type": "Point", "coordinates": [ -109.508728, 38.593593 ] } },
{ "type": "Feature", "properties": { "feature_name": "Natural Bridge", "feature_class": "Arch", "state_alpha": "UT", "state_numeric": "49", "county_name": "San Juan", "county_numeric": "037", "prim_lat_dec": 37.6011095, "prim_long_dec": -109.5090112, "elev_in_ft": "5896", "map_name": "Black Mesa Butte", "date_created": "02\/25\/1989", "date_edited": "" }, "geometry": { "type": "Point", "coordinates": [ -109.509011, 37.601109 ] } },
{ "type": "Feature", "properties": { "feature_name": "North Window", "feature_class": "Arch", "state_alpha": "UT", "state_numeric": "49", "county_name": "Grand", "county_numeric": "019", "prim_lat_dec": 38.6862808, "prim_long_dec": -109.5328698, "elev_in_ft": "5371", "map_name": "The Windows Section", "date_created": "02\/25\/1989", "date_edited": "02\/12\/2017" }, "geometry": { "type": "Point", "coordinates": [ -109.53287, 38.686281 ] } },